id,dublin_no,location,code,spaces,exact_location,installed,tariff,nearest_pad,op_hours,clearway,clearway_hours,comment,further_info,finished,extra_comment,zone,longitude,latitude,created_at,updated_at
1,3,Hatch Street Upper,2,58 P&D (Total),Near College of Music,,2.90,6 On Hatch St Upr,Mon-Sat 07.00-19.00,FALSE,,,,FALSE,,Yellow,-6.261752,53.333963,02/01/2012 22:45:00,NULL
2,5,Hatch Street Upper,2,58 P&D (Total),Iveagh Gardens,,2.90,6 On Hatch St Upr,Mon-Sat 07.00-19.00,FALSE,,,Northside West of Earlsfort Tce,TRUE,,Yellow,-6.260484,53.334019,02/01/2012 22:45:00,NULL
3,6,Hatch Street Upper,2,58 P&D (Total),UCD,,2.90,6 On Hatch St Upr,Mon-Sat 07.00-19.00,FALSE,,,Northside West of Earlsfort Tce,TRUE,,Yellow,-6.259689,53.333968,02/01/2012 22:45:00,NULL
4,7,Lindsay Road,9,35 P&D / DP,Off Botanic Road,,1.60,Iona Road 158,Mon-Sat 07.00-24.00,FALSE,,,,FALSE,,Green,-6.271275,53.365855,02/01/2012 22:45:00,NULL
5,8,Grand Canal Place,8,27 P&D,Near Crane Street,,1.60,"Echlin St 615, Bellevue 66",Mon-Sat 07.00-19.00,FALSE,,,,FALSE,,Green,-6.28747,53.341726,02/01/2012 22:45:00,NULL
6,9,Collier's Avenue,6,24 P&D / DP,At Sandford Road,13/05/2002,1.00,"Woodstock Gardens 296 (€2.00), Anna Villa 546",Mon-Sat 07.00-24.00,FALSE,,,,FALSE,,Orange,-6.249756,53.323081,02/01/2012 22:45:00,NULL
7,15,Ailesbury Road,4,169 P&D / DP (Total),At St. Anne's,,1.60,Ailesbury Grove 795,Mon-Fri 07.00-19.00,FALSE,,,,TRUE,,Green,-6.230097,53.319505,02/01/2012 22:45:00,NULL
8,18,Ailesbury Road,4,169 P&D / DP (Total),At Number 14,,1.60,"Ailesbury Rd 786, Merlyn Park 828, Merrion View Ave 130",Mon-Fri 07.00-19.00,FALSE,,,,TRUE,,Green,-6.216475,53.320446,02/01/2012 22:45:00,NULL
9,19,Nottingham Street,3,55 P&D / DP,Off North Strand Road,13/04/2002,1.60,"Nth Strand Rd 367, 510, Northbrook Ave Lwr 523, Annesley Place 814",Mon-Sat 07.00-19.00,FALSE,,,,FALSE,,Green,-6.241276,53.358891,02/01/2012 22:45:00,NULL
10,20,St. Mary's Terrace (Arbour Hill),7,4 P&D + 4 DP,At Arbour Place,,1.60,None Nearby,Mon-Sat 07.00-24.00,FALSE,,,,FALSE,,Green,-6.283247,53.350557,02/01/2012 22:45:00,NULL
11,23,North Circular Road,1,20 P&D / DP,At Summerhill Parade & Russell St,,2.40,Nth Circular Rd 160,Mon-Fri 08.00-18.30,FALSE,,,,FALSE,,Red,-6.250116,53.357475,02/01/2012 22:45:00,NULL
12,24,Charles' Street Great,1,76 P&D / DP,North Side West of Emmet Street,,2.40,"Emmet Street 873, 4 On Mountjoy Square",Mon-Sun 07.00-24.00,FALSE,,,N.Side West of Emmet St,TRUE,,Red,-6.254207,53.357192,02/01/2012 22:45:00,NULL
13,25,Prussia Street,7,10 P&D / DP,Opposite Joseph's Road,,1.60,St. Joseph's Rd 469,Mon-Sun 07.00-24.00,FALSE,,,,TRUE,,Green,-6.287127,53.354882,02/01/2012 22:45:00,NULL
14,26,Kenilworth Square West,6,71 P&D / DP,At Park,,1.60,4 At Kenilworth Square,Mon-Fri 08.00-18.30,FALSE,,,,FALSE,,Green,-6.277189,53.318538,02/01/2012 22:45:00,NULL
15,27,Cadogan Road,3,78 P&D / DP,Off Annesley Bridge Road,,1.00,"Annesley Bridge Rd 359, 513",Mon-Sat 07.00-19.00,FALSE,,,,TRUE,,Orange,-6.238507,53.361435,02/01/2012 22:45:00,NULL
16,28,Tyrconnell Street,8,30 P&D / DP,Junction of Tyrconnel Road,,1.00,Tyrconnel Rd 732,Mon-Sat 07.00-24.00,FALSE,,,,TRUE,,Orange,-6.323421,53.337743,02/01/2012 22:45:00,NULL
17,31,Raymond Street,8,68 P&D / DP,At No 25,,2.40,Clanbrassil Tce 773,Mon-Sat 07.00-24.00,FALSE,,,,FALSE,,Red,-6.276736,53.334021,02/01/2012 22:45:00,NULL
18,32,St. Alban's Road,8,44 P&D / DP,At South Circular Road,,1.60,Greenville Tce 34,Mon-Fri 08.00-18.30,FALSE,,,,FALSE,,Green,-6.277943,53.331881,02/01/2012 22:45:00,NULL
19,33,Estate Cottages,4,10 P&D + 22 DP,Junction Of Northumberland Road,13/05/2002,2.90,"Northumberland Rd 528, Percy Place 501",Mon-Sat 07.00-24.00,FALSE,,,E.Side Nth of Stephens Grn Sth,TRUE,,Yellow,-6.239662,53.337704,02/01/2012 22:45:00,NULL
20,34,Greenville Terrace,8,71 P&D / DP,At SPAR,,1.60,"St Alban's Rd 32, Washington St 38",Mon-Sat 07.00-24.00,FALSE,,,,FALSE,,Green,-6.278865,53.331694,02/01/2012 22:45:00,NULL
21,35,South Dock Street,4,84 P&D / DP,Opposite Number 64,,2.40,"3 On South Lotts Rd, Penrose St 640, Hastings St 642",Mon-Sat 07.00-24.00,FALSE,,,,FALSE,,Red,-6.23273,53.340642,02/01/2012 22:45:00,NULL
22,36,Kenilworth Square South,6,80 P&D / DP,At Park,,1.60,4 At Kenilworth Square,Mon-Fri 08.00-18.30,FALSE,,,,FALSE,,Green,-6.275799,53.3172,02/01/2012 22:45:00,NULL
23,37,Royse Road,7,28 P&D / DP,Off Phibsborough Road,,1.60,"Munster St 519, Leinster St Nth 662",Mon-Fri 07.00-24.00,FALSE,,,,FALSE,,Green,-6.272205,53.363008,02/01/2012 22:45:00,NULL
24,38,Washington Street,8,37 P&D / DP,Opposite No 12,,1.60,"Dufferin Ave 589, Greenville Tce 34",Mon-Sat 07.00-24.00,FALSE,,,,FALSE,,Green,-6.279593,53.33248,02/01/2012 22:45:00,NULL
25,39,Garville Road,6,36 P&D / DP,Opposite Number 144,,1.00,"Garville Ave 748, Garville Mews 713",Mon-Sat 07.00-19.00,FALSE,,,,FALSE,,Orange,-6.271245,53.315731,02/01/2012 22:45:00,NULL
26,47,Greenmount Lane,12,11 P&D / DP,At Number 18,,1.60,None Nearby,Mon-Sat 07.00-24.00,FALSE,,,,FALSE,,Green,-6.278455,53.328634,02/01/2012 22:45:00,NULL
27,48,The Coombe,8,16 P&D / DP,Near Reginald Street / At No 62,,1.60,Gray St 649,Mon-Sat 07.00-24.00,FALSE,,,,FALSE,,Red,-6.279323,53.339683,02/01/2012 22:45:00,NULL
28,49,St. Philomena's Road,11,17 P&D / DP,Off Finglas Road,09/05/2002,1.00,Prospect Avenue 661 (€1.50),Mon-Sat 07.00-24.00,FALSE,,,,FALSE,,Orange,-6.273128,53.367647,02/01/2012 22:45:00,NULL
29,51,Kenilworth Square East,6,84 P&D / DP,At Park,09/05/2002,1.60,4 At Kenilworth Square,Mon-Sat 07.00-19.00,FALSE,,,,FALSE,,Green,-6.274578,53.318284,02/01/2012 22:45:00,NULL
30,53,Rathmines Road Upper,6,43 P&D / DP (Total),Near junction York Rd,09/05/2002,1.60,"York Rd 742, Church Ave 562",Mon-Fri 08.00-18.30,FALSE,,,,FALSE,,Green,-6.264667,53.319286,02/01/2012 22:45:00,NULL
31,54,St. Joseph's Parade,7,16 P&D / DP,Off Dorset Street Lower,09/05/2002,2.40,Eccles St 409,Mon-Sat 07.00-24.00,FALSE,,,,FALSE,,Red,-6.26616,53.357323,02/01/2012 22:45:00,NULL
32,55,St. Brigid's Road (Artane),5,,Outside No. 48 St Brigid's Road,,0.60,,Mon-Sat 07.00-19.00,FALSE,,,,TRUE,,Blue,-6.205195,53.381897,02/01/2012 22:45:00,NULL
33,56,St. Brigid's Road Lower,9,40 P&D / DP,At Whitworth Rd Junction,23/04/2002,1.60,St. Patrick's Road 632,Mon-Sun 07.00-24.00,FALSE,,,,FALSE,,Green,-6.262521,53.362598,02/01/2012 22:45:00,NULL
34,57,Collin's Avenue East,5,22 P&D,Opposite Number 66,22/04/2002,1.00,Kilbride Rd 145,Mon-Sat 07.00-19.00,FALSE,,,,FALSE,,Orange,-6.210015,53.373046,02/01/2012 22:45:00,NULL
35,58,St. Anne's Road North,9,16 P&D + 16 DP,Off Drumcondra Rd.,29/04/2002,1.60,"Drumcondra Rd Lwr 837, 848, St. Patrick's Rd 632",Mon-Sat 07.00-24.00,FALSE,,,,FALSE,,Green,-6.258731,53.362966,02/01/2012 22:45:00,NULL
36,59,North Circular Road,7,4 P&D + 2 DP,o/s 296B North Circular Road,23/04/2002,2.40,"Avondale Avenue 925, Rosemount Rd 549",Mon-Sat 07.00-19.00,FALSE,,,,FALSE,,Red,-6.277012,53.36014,02/01/2012 22:45:00,NULL
37,63,Garville Avenue Upper,6,9 P&D,At Number 88,,1.00,"Brighton Sq 456, Brighton Rd 734",Mon-Sat 07.00-24.00,FALSE,,,,FALSE,,Orange,-6.278294,53.315144,02/01/2012 22:45:00,NULL
38,64,Fairview Avenue Upper,3,27 P&D,At Green,,1.00,Fairview Ave Lwr 466,Mon-Fri 08.00-18.30,FALSE,,,,FALSE,,Orange,-6.235049,53.365338,02/01/2012 22:45:00,NULL
39,65,Waterloo Lane,4,10 P&D / DP,At Number 29,,2.90,"Sussex Rd 425, Wellington Rd 294, Wellington Place 224",Mon-Fri 08.00-18.30,FALSE,,,,FALSE,,Yellow,-6.246725,53.328658,02/01/2012 22:45:00,NULL
40,66,Bellevue (Coach Parking),8,,Guinness Brewery,,1.60,Grand Canal Place 8,COACHES ONLY 24 HRS,FALSE,,,,FALSE,,Green,-6.286043,53.341605,02/01/2012 22:45:00,NULL
41,68,Oakley Road,6,47 P&D / DP,Junction Of Dunville Avenue,16/04/2002,1.60,"Moyne Rd 470, Dunville Ave 692",Mon-Sat 07.00-19.00,FALSE,,,,FALSE,,Green,-6.256166,53.321611,02/01/2012 22:45:00,NULL
42,69,Wexford Street,2,14 P&D (Total),At Paddy Powers',,2.90,"Wexford St 86, 3 On Camden St",Mon-Sat 07.00-19.00,FALSE,,,,FALSE,,Yellow,-6.265792,53.337313,02/01/2012 22:45:00,NULL
43,70,Larch Grove,6,8 P&D / DP,Off Sandford Road,17/04/2002,2.40,None Nearby,Mon-Sat 07.00-24.00,FALSE,,,,FALSE,,Red,-6.246402,53.321642,02/01/2012 22:45:00,NULL
44,71,Dartry Road,6,28 P&D / DP,At Dodder Walk,16/04/2002,1.00,None Nearby,Mon-Sun 07.00-21.00,FALSE,,,,FALSE,,Orange,-6.259641,53.308441,02/01/2012 22:45:00,NULL
45,73,Ardagh Road,12,38 P&D / DP,Off Crumlin Road,16/04/2002,1.00,None Nearby,Mon-Sat 07.00-24.00,FALSE,,,,FALSE,,Orange,-6.303208,53.328784,02/01/2012 22:45:00,NULL
46,74,Bow Lane West,8,26 P&D / DP,Opposite Number 4 & East of Bow Bridge,,1.00,None Nearby,Mon-Sat 07.00-19.00,FALSE,,,,TRUE,,Orange,-6.295594,53.342812,02/01/2012 22:45:00,NULL
47,75,Langrishe Place,1,22 P&D / DP,Off Summerhill,17/04/2002,2.40,None Nearby,Mon-Sun 07.00-24.00,FALSE,,,,FALSE,,Red,-6.256001,53.354698,02/01/2012 22:45:00,NULL
48,76,Sandymount Avenue,4,43 P&D / DP (Total),At Number 53,15/04/2002,1.00,None Nearby,Mon-Fri 08.00-18.30,FALSE,,,,FALSE,,Orange,-6.218488,53.329228,02/01/2012 22:45:00,NULL
49,77,Camden Street,2,25 P&D (Total),At Number 11,,2.90,"3 On Camden St, 2 On Wexford St",Mon-Sat 07.00-19.00,FALSE,,,,FALSE,,Yellow,-6.265096,53.335698,02/01/2012 22:45:00,NULL
50,78,Camden Street,2,25 P&D (Total),At West Coast Coffee,,2.90,"3 On Camden St, 2 On Wexford St",Mon-Sat 07.00-19.00,FALSE,,,,FALSE,,Yellow,-6.265067,53.335247,02/01/2012 22:45:00,NULL
51,85,Prince's Street South,2,20 P&D / DP,At Number 3,,2.90,"Townsend St 284, 310, 500",Mon-Sat 07.00-19.00,FALSE,,,,FALSE,,Yellow,-6.25014,53.346746,02/01/2012 22:45:00,NULL
52,86,Wexford Street,2,14 P&D (Total),At VIP Taxi,,2.90,"Wexford St 69, 3 On Camden St, Montague St 257",Mon-Sat 07.00-19.00,FALSE,,,,FALSE,,Yellow,-6.265509,53.336919,02/01/2012 22:45:00,NULL
53,101,Golden Lane,8,30 P&D + 8 DP (Total),At flats,,2.90,"Bride St 484, Bull Alley St 323",Mon-Sat 07.00-19.00,FALSE,,,East corner with Golden Lane,TRUE,,Yellow,-6.268015,53.340659,02/01/2012 22:45:00,NULL
54,102,Golden Lane,8,30 P&D + 8 DP (Total),At flats,,2.90,"Bride St 484, Bull Alley St 323",Mon-Sat 07.00-19.00,FALSE,,,West corner with Golden Lane,TRUE,,Yellow,-6.268276,53.340599,02/01/2012 22:45:00,NULL
55,103,Edenvale Road,6,115 P&D / DP,At Church,,1.60,"Beechwood Rd 389, Albany Rd 142",Mon-Fri 08.00-18.30,FALSE,,,,TRUE,,Green,-6.252483,53.31883,02/01/2012 22:45:00,NULL
56,104,Inns Quay,7,32 P&D (Total),Liffey side,,2.90,"Inns Quay 105, 106",Mon-Sat 07.00-19.00,FALSE,,,S.Side East of Church St Bridge,TRUE,,Yellow,-6.273988,53.345576,02/01/2012 22:45:00,NULL
57,109,Emmet Road,8,155 P&D / DP (Total),No 10,,1.00,Emmet Rd 154,Mon-Sat 07.00-19.00,FALSE,,,,FALSE,,Orange,-6.308426,53.340543,02/01/2012 22:45:00,NULL
58,113,Parkgate Street,8,13 P&D + 3 DP (Total),At Nancy's Pub,12/04/2002,1.00,"Parkgate St 135, Conyngham Rd 453",Mon-Sat 07.00-19.00,FALSE,,,,FALSE,,Orange,-6.29406,53.348137,02/01/2012 22:45:00,NULL
59,117,Marlborough Street,1,26 P&D (Total),At Lifts & stairs Car Park,,2.90,"Marlborough St 115, 116, Cathal Brugha St 483",Mon-Sat 07.00-19.00,FALSE,,,E.Side Sth of Cathal Brugha St,TRUE,,Yellow,-6.258775,53.351749,02/01/2012 22:45:00,NULL
60,120,Deverell Place,1,10 P&D,Custom Hall,,2.90,"Gardiner St Lwr 119, 121",Mon-Sat 07.00-19.00,FALSE,,,N.Side West of Gardiner St,TRUE,,Yellow,-6.255396,53.351471,02/01/2012 22:45:00,NULL
61,124,Aughrim Street,7,70 P&D / DP (Total),Opposite Chiropodist,,1.60,"Aughrim St 433, St. Joseph's Rd 469",Mon-Fri 08.00-18.30,FALSE,,,,FALSE,,Green,-6.288223,53.353902,02/01/2012 22:45:00,NULL
62,125,Fergus Road,6,17 P&D / DP,Opposite Number 344,,1.00,"Beechlawn Way 733, Rathfarnham Rd 591",Mon-Sat 07.00-24.00,FALSE,,,,FALSE,,Orange,-6.284348,53.308144,02/01/2012 22:45:00,NULL
63,127,Grattan Crescent,8,23 P&D (Total),Opposite Park,,1.00,Grattan Crescent 663,Mon-Sat 07.00-19.00,FALSE,,,,FALSE,,Orange,-6.320149,53.34092,02/01/2012 22:45:00,NULL
64,128,Annadale Avenue,3,27 P&D / DP,Off Phillipsburgh Avenue,,1.00,None Nearby,Mon-Sat 07.00-24.00,FALSE,,,,FALSE,,Orange,-6.240134,53.36671,02/01/2012 22:45:00,NULL
65,129,Bride Road,8,18 P&D,Iveagh Baths,,2.90,"Bull Alley St 323, Ross Rd 611, Werburgh St 247",Mon-Sat 07.00-19.00,FALSE,,,N.Side West of Werburgh St,TRUE,,Yellow,-6.271372,53.341552,02/01/2012 22:45:00,NULL
66,130,Merrion View Avenue,4,25 P&D / DP,Opposite Number 1,,1.00,"Merrion Rd 665, Ailesbury Rd 786, 18",Mon-Sat 07.00-19.00,FALSE,,,,TRUE,,Orange,-6.214653,53.319766,02/01/2012 22:45:00,NULL
67,131,Ship Street Little,8,4 P&D,Off Werburgh Street,,2.90,"Werburgh St 247, Ross Rd 611",Mon-Sat 07.00-19.00,FALSE,,,,FALSE,,Yellow,-6.268884,53.342355,02/01/2012 22:45:00,NULL
68,132,Dillon Place South,8,9 P&D,Off John Dillon St,,2.90,"John Dillon St 327, 699",Mon-Sat 07.00-24.00,FALSE,,,,FALSE,,Yellow,-6.273014,53.341031,02/01/2012 22:45:00,NULL
69,133,Richmond Hill,6,14 P&D / DP,Opposite Military Rd,,2.40,"Mountpleasant Square 432, Mountpleasant Ave Lwr 797",Mon-Sun 07.00-24.00,FALSE,,,,FALSE,,Red,-6.262455,53.327163,02/01/2012 22:45:00,NULL
70,134,Victoria Quay,8,10 P&D,West Of Watling Street Bridge,,1.60,None Nearby,Mon-Sat 07.00-19.00,FALSE,,,,FALSE,,Green,-6.2854,53.346504,02/01/2012 22:45:00,NULL
71,135,Parkgate Street,8,13 P&D + 3 DP (Total),Opposite Cowan's Motors,,1.00,Parkgate St 113,Mon-Sat 07.00-19.00,FALSE,,,,FALSE,,Orange,-6.293873,53.348005,02/01/2012 22:45:00,NULL
72,139,Hatch Street Lower,2,49 P&D + 3 DP (Total),No 25,,2.90,5 On Hatch St Lwr,Mon-Sat 07.00-19.00,FALSE,,,S.Side West of Leeson St,TRUE,,Yellow,-6.256714,53.333858,02/01/2012 22:45:00,NULL
73,141,Albert Place East,2,24 P&D / DP,Off Grand Canal Street,,2.90,"Grand Canal St Lwr 3461, 3472",Mon-Sun 07.00-24.00,FALSE,,,,FALSE,,Yellow,-6.242345,53.339761,02/01/2012 22:45:00,NULL
74,142,Albany Road (Rathmines),6,78 P&D / DP,Opposite Park,,1.60,"Mountain View Rd 687, Edenvale Rd 103",Mon-Fri 08.00-18.30,FALSE,,,,FALSE,,Green,-6.252168,53.31839,02/01/2012 22:45:00,NULL
75,144,Royal Canal Bank,7,58 P&D / DP,At Number 1,,1.60,None Nearby,Mon-Sun 07.00-24.00,FALSE,,,,FALSE,,Green,-6.271167,53.361286,02/01/2012 22:45:00,NULL
76,145,Kilbride Road,5,45 P&D / DP,"Off Collins Avenue, Killester",,1.00,Collin's Avenue East 57,Mon-Fri 08.00-18.30,FALSE,,,,FALSE,,Orange,-6.207672,53.373133,02/01/2012 22:45:00,NULL
77,146,Brighton Square,6,178 P&D / DP (Total),At ERCO,,1.00,"Brighton Sq 550, Terenure Rd Nth 499",Mon-Sat 07.00-24.00,FALSE,,,,FALSE,,Orange,-6.280248,53.316681,02/01/2012 22:45:00,NULL
78,153,Viking Place,7,18 P&D / DP,Opposite Number 11,,1.60,"Ard Rí Rd 827, Sitric Rd 877",Mon-Sat 07.00-24.00,FALSE,,,,FALSE,,Green,-6.284818,53.350161,02/01/2012 22:45:00,NULL
79,154,Emmet Road,8,155 P&D / DP (Total),No 13 / West of N'side SCR,11/12/1998,1.00,Emmet Rd 109,Mon-Sat 07.00-19.00,FALSE,,,,TRUE,,Orange,-6.309926,53.340684,02/01/2012 22:45:00,NULL
80,155,Killester Avenue,5,17 P&D / DP,At Number 44,,1.00,None Nearby,Mon-Fri 08.00-18.30,FALSE,,,,FALSE,,Orange,-6.209511,53.375277,02/01/2012 22:45:00,NULL
81,157,Brighton Square,6,178 P&D / DP (Total),At Number 52,15/04/2002,1.00,"Brighton Sq 456, 550",Mon-Sat 07.00-24.00,FALSE,,,,FALSE,,Orange,-6.281752,53.314678,02/01/2012 22:45:00,NULL
82,158,Iona Road,9,14 P&D / DP,Junction Of Botanic Road,,1.60,Lindsay Rd 7,Mon-Sat 07.00-24.00,FALSE,,,,FALSE,,Green,-6.270772,53.36671,02/01/2012 22:45:00,NULL
83,159,Ormond Road,9,31 P&D / DP,At Drumcondra Rd Upr Junction,,1.00,"Drumcondra Rd Upr 578, 723",Mon-Sat 07.00-19.00,FALSE,,,,FALSE,,Orange,-6.253541,53.370582,02/01/2012 22:45:00,NULL
84,160,North Circular Road,1,20 P&D / DP,At Summerhill Parade and Russell St,,2.40,"Nth Circular Rd 23, Charles' St West 24",Mon-Fri 08.00-18.30,FALSE,,,,FALSE,,Red,-6.252827,53.358113,02/01/2012 22:45:00,NULL
85,161,Frankfort Avenue,6,96 P&D / DP,At Number 75,,1.00,Leicester Ave 738,Mon-Sat 07.00-24.00,FALSE,,,,FALSE,,Orange,-6.268938,53.316567,02/01/2012 22:45:00,NULL
86,162,Victoria Road,6,67 P&D / DP,Junction of Zion Road,,1.00,Herzog Pk 21,Mon-Fri 08.00-18.30,FALSE,,,,FALSE,,Orange,-6.274149,53.309066,02/01/2012 22:45:00,NULL
87,163,Brunswick Street North,7,24 P&D / DP (Total),At Boys' School,,2.40,Brunswick St N 641,Mon-Sat 07.00-19.00,FALSE,,,,FALSE,,Red,-6.27901,53.350482,02/01/2012 22:45:00,NULL
88,164,Ormond Road South,6,96 P&D / DP,House Number 2,,1.60,"Moyne Rd 672, Palmerston Rd 565, 736",Mon-Sat 08.00-18.30,FALSE,,,,FALSE,,Green,-6.258435,53.31841,02/01/2012 22:45:00,NULL
89,165,St. Agnes' Road,12,19 P&D,At Car Park Opposite AIB Crumlin,25/04/2002,1.00,None Nearby,Mon-Sat 07.00-19.00,FALSE,,,,FALSE,,Orange,-6.316975,53.316525,02/01/2012 22:45:00,NULL
90,166,Rathgar Road,6,6 P&D,At Number 9,25/04/2002,1.00,"Charleville Rd 428, Grosvenor Rd 325",Mon-Sat 07.00-19.00,FALSE,,,,FALSE,,Orange,-6.267807,53.320887,02/01/2012 22:45:00,NULL
91,167,Terenure Road East,6,7 P&D,Opposite AIB,25/04/2002,1.00,"Brighton Rd 735, Herzog Pk 21",Mon-Sat 07.00-19.00,FALSE,,,,FALSE,,Orange,-6.275152,53.311889,02/01/2012 22:45:00,NULL
92,168,South Circular Road,8,22 P&D,"Rialto end, outside shops",,1.00,None Nearby,Mon-Sat 07.00-19.00,FALSE,,,,FALSE,,Orange,-6.296742,53.335794,02/01/2012 22:45:00,NULL
93,169,Brunswick Place,2,10 P&D,Off Pearse Street,25/04/2002,2.40,"Hogan Place 820, Pearse St 857, Erne Street Upper 634",Mon-Sat 07.00-19.00,FALSE,,,,FALSE,,Red,-6.243911,53.342463,02/01/2012 22:45:00,NULL
94,174,Grantham Street,8,6 P&D + 45 DP (Total),At Heytesbury Street / No 72,,2.90,"Grantham St 270, 2 On Heytesbury St, Synge St 179",Mon-Sun 07.00-24.00,FALSE,,DP Mon-Sat,S.Side at Heytesbury St,TRUE,,Yellow,-6.268388,53.333957,02/01/2012 22:45:00,NULL
95,176,New Bride Street,8,20 P&D / DP (Total),No 20,,2.90,"New Bride St 647, Camden Row 177, Long Lane 395",Mon-Sun 07.00-24.00,FALSE,,,W.Side Nth of Long Lane,TRUE,,Yellow,-6.26904,53.336388,02/01/2012 22:45:00,NULL
96,178,Victoria Street,8,80 P&D / DP,No 37,,2.40,"3 On Lennox St, Stamer St 172",Mon-Sun 07.00-24.00,FALSE,,,E.Side Nth of Florence St,TRUE,,Red,-6.269964,53.331261,02/01/2012 22:45:00,NULL
97,181,Wellington Road,4,126 P&D / DP (Total),No 1A,,2.90,4 On Pembroke Rd,Mon-Fri 08.00-18.30,FALSE,,Mon - Fri,,TRUE,,Yellow,-6.240824,53.331698,02/01/2012 22:45:00,NULL
98,182,Wellington Road,4,126 P&D / DP (Total),No 83,,2.90,"3 On Clyde Road, Waterloo Rd 294",Mon-Fri 08.00-18.30,FALSE,,,,TRUE,,Yellow,-6.241848,53.328619,02/01/2012 22:45:00,NULL
99,195,Eccles Street,7,36 P&D + 16 DP (Total),"Number 30, Entrance to public hospital",12/09/1998,2.40,"Eccles St 409, 703",Mon-Sat 07.00-19.00,FALSE,,,N.Side Opp Nelson St,TRUE,,Red,-6.267022,53.358524,02/01/2012 22:45:00,NULL
100,219,Charlemont Street,2,27 P&D + 3 DP (Total),No 64,,2.90,"Charlemont St 84, Charlemont Place 413, Charlemont Mall 126",Mon-Sat 07.00-19.00,FALSE,,,,TRUE,,Yellow,-6.261058,53.331197,02/01/2012 22:45:00,NULL
101,222,Fontenoy Street,7,77 P&D,Off Dorset Street near Black Church,12/01/1999,2.40,"St. Mary's Place Nth 272, 273",Mon-Sun 07.00-24.00,FALSE,,DP Mon-Sat,West of Mountjoy St,TRUE,,Red,-6.268506,53.355416,02/01/2012 22:45:00,NULL
102,223,Lansdowne Road,4,49 P&D / DP (Total),No 42,12/01/1999,2.90,"Lansdowne Rd 657, Shelbourne Rd 658",Mon-Fri 08.00-18.30,FALSE,,,,TRUE,,Yellow,-6.232406,53.333768,02/01/2012 22:45:00,NULL
103,224,Wellington Place,4,48 P&D / DP,No 29,,2.90,"Wellington Rd 182, Waterloo Rd 294, Waterloo Lane 65, 3 On Clyde Rd",Mon-Fri 08.00-18.30,FALSE,,,,TRUE,,Yellow,-6.243727,53.327936,02/01/2012 22:45:00,NULL
104,226,Burlington Road,4,144 P&D / DP (Total),Ark Life Assurance,,2.90,5 On Burlington Rd,Mon-Fri 08.00-18.30,FALSE,,,,TRUE,,Yellow,-6.245628,53.331631,02/01/2012 22:45:00,NULL
105,227,Dartmouth Road,6,51 P&D / DP (Total),Opp no 67,,2.90,"Dartmouth Road 451, 450, 605",Mon-Fri 08.00-18.30,FALSE,,,,TRUE,,Yellow,-6.256164,53.329854,02/01/2012 22:45:00,NULL
106,228,Charlemont Mall,2,70 P&D / DP (Total),At Light-Stand 12,17/04/2001,2.40,Charlemont Mall Charlemont Mall 126 (€2.90),Mon-Fri  08.00-18.30,FALSE,,,replaced met.668  03/03/2010,TRUE,,Red,-6.263337,53.330308,02/01/2012 22:45:00,NULL
107,231,Cook Street,8,12 P&D + 29 DP,At church,,2.90,"High St 352, 4 On Merchant's Quay",Mon-Sat 07.00-19.00,FALSE,,,N.Side opposite School House Lane,TRUE,,Yellow,-6.272774,53.344255,02/01/2012 22:45:00,NULL
108,233,Arran Street East,7,5 P&D + 12 DP,Opposite Number 3,,2.90,5 On Ormond Quay Upr,Mon-Sat 07.00-19.00,FALSE,,,W.Side = south of Ormond Square,TRUE,,Yellow,-6.270049,53.346285,02/01/2012 22:45:00,NULL
109,235,Harcourt Terrace,2,33 P&D / DP,Opposite Number 19,,2.90,6 On Adelaide Road,Mon-Sat 07.00-19.00,FALSE,,DP Mon-Sat,W.Side = South of Adelaide Rd,TRUE,,Yellow,-6.257816,53.332036,02/01/2012 22:45:00,NULL
110,237,Holles Street,2,10 P&D,At Holles Row,,2.90,"5 On Fenian St, Hogan Place 820",Mon-Sun 07.00-24.00,FALSE,,,,TRUE,,Yellow,-6.245703,53.340715,02/01/2012 22:45:00,NULL
111,238,Percy Place,4,121 P&D / DP (Total),No 49-51,,2.90,"Percy Place 375, 501, Mount St Crescent 2990",Mon-Sat 07.00-19.00,FALSE,,,,TRUE,,Yellow,-6.241951,53.336108,02/01/2012 22:45:00,NULL
112,241,Macken Street,2,20 P&D + 120 DP (Total),Corner of Hogan Ave,,2.40,"Macken St 300, Pearse Sq 621, Pearse St 839",Mon-Fri 08.00-18.30,FALSE,,P&D Mon - Fri,,TRUE,,Red,-6.24161,53.34102,02/01/2012 22:45:00,NULL
113,243,Eglinton Terrace,4,42 P&D / DP,Junction of Donnybrook Road,,2.40,"Donnybrook Rd 350, Pembroke Cottages 486",Mon-Sun 07.00-24.00,FALSE,,P&D Mon - Fri,,TRUE,,Red,-6.234755,53.321286,02/01/2012 22:45:00,NULL
114,244,Emmet Road,8,155 P&D / DP (Total),East of S'side St Vincent Street,,1.00,Emmet Rd 652,Mon-Sat 07.00-19.00,FALSE,,P&D Mon - Fri,,TRUE,,Orange,-6.318334,53.339719,02/01/2012 22:45:00,NULL
115,245,Donnybrook Road,4,63 P&D + 51 DP (Total),Ulster Bank,,2.40,"4 On Donnybrook Rd, Pembroke Cottages 486, Victoria Ave 487",Mon-Sat 07.00-19.00,FALSE,,,,TRUE,,Red,-6.237817,53.322448,02/01/2012 22:45:00,NULL
116,246,Donnybrook Road,4,63 P&D + 51 DP (Total),First Active,,2.40,"4 On Donnybrook Rd, Pembroke Cottages 486, Victoria Ave 487",Mon-Sat 07.00-19.00,FALSE,,,,TRUE,,Red,-6.237043,53.322392,02/01/2012 22:45:00,NULL
117,248,Pembroke Road,4,103 P&D / DP (Total),Number 78-80,,2.90,4 On Pembroke Rd,Mon-Sat 07.00-19.00,FALSE,,,,TRUE,,Yellow,-6.238533,53.332462,02/01/2012 22:45:00,NULL
118,249,Elgin Road,4,112 P&D / DP (Total),The church,,2.90,"Elgin Rd 424, Clyde Rd 722",Mon-Fri 08.00-18.30,FALSE,,,,TRUE,,Yellow,-6.235738,53.330096,02/01/2012 22:45:00,NULL
119,250,Blessington Street,7,49 P&D / DP (Total),"Dargon's Chemist, West-Side of Berkeley St",,2.40,"Blessington St 563, Fontenoy St 222, Berkeley Rd 107",Mon-Sat 07.00-24.00,FALSE,,,,TRUE,,Red,-6.268242,53.356901,02/01/2012 22:45:00,NULL
120,251,Morehampton Road,4,15 P&D + 44 DP (Total),No 125,,2.40,"Morehampton Rd 348, Auburn Ave 485, Victoria Ave 487, Mount Eden Rd 256, Donnybr",Mon-Sat 07.00-19.00,FALSE,,,,TRUE,,Red,-6.23875,53.323193,02/01/2012 22:45:00,NULL
121,253,Morehampton Road,4,15 P&D + 44 DP (Total),AIB,,2.40,"Morehampton Rd 348, Herbert Park 293",Mon-Sat 07.00-19.00,FALSE,,,,TRUE,,Red,-6.240667,53.324689,02/01/2012 22:45:00,NULL
122,260,Mary's Lane,7,8 P&D + 12 DP,"At flats, south side, west of Greek Street",,2.90,"Greek Street 258, 259, Beresford St 261",Mon-Sat 07.00-19.00,FALSE,,,,TRUE,,Yellow,-6.273954,53.347983,02/01/2012 22:45:00,NULL
123,266,Mountjoy Square West,1,13 P&D,"Opp 59, eastside, nth of Mountjoy Sq Sth",,2.40,"3 On Gardiner Place, Mountjoy Sq Sth 381, 382, Mountjoy Sq Nth 264",Mon-Sat 07.00-19.00,FALSE,,,,TRUE,,Red,-6.258341,53.356236,02/01/2012 22:45:00,NULL
124,269,Gardiner Place,1,22 P&D + 10 DP (Total),No 36,,2.40,"Gardiner Place 267, 268",Mon-Sat 07.00-19.00,FALSE,,,,TRUE,,Red,-6.260398,53.356185,02/01/2012 22:45:00,NULL
125,271,Linenhall Street,7,24 P&D / DP,No 15,,2.90,"Coleraine St 321, Lurgan St 752",Mon-Fri 08.00-18.30,FALSE,,,,TRUE,,Yellow,-6.272606,53.35082,02/01/2012 22:45:00,NULL
126,272,St. Mary's Place North,7,14 P&D (Total),At Christian Brothers' School,,2.40,St. Mary's Place Nth 273,Mon-Sat 07.00-19.00,FALSE,,,,TRUE,,Red,-6.267273,53.354436,02/01/2012 22:45:00,NULL
127,273,St. Mary's Place North,7,14 P&D (Total),At Flats,,2.40,St. Mary's Place Nth 272,Mon-Sat 07.00-19.00,FALSE,,,,TRUE,,Red,-6.267424,53.354311,02/01/2012 22:45:00,NULL
128,277,Parnell Street,1,21 P&D (Total),Connie's Take-away,,2.90,"Parnell St 276, Cumberland St Nth 61",Mon-Sat 10.00-19.00,FALSE,07-10.00+16.00-19.00,,,TRUE,,Yellow,-6.25927,53.35362,02/01/2012 22:45:00,NULL
129,283,John Street West,8,8 P&D + 9 DP,Junction of Thomas Street,,2.40,"Oliver Bond St 373, 719, Thomas St 597",Mon-Sat 07.00-19.00,FALSE,,,,FALSE,,Red,-6.277117,53.343014,02/01/2012 22:45:00,NULL
130,284,Townsend Street,2,36 P&D + 19 DP (Total),"At the Green, Space Centre",,2.90,"3 On Townsend St, 4 On Lombard St E, Sandwith St 461",Mon-Sat 07.00-19.00,FALSE,,,,TRUE,,Yellow,-6.247286,53.345153,02/01/2012 22:45:00,NULL
131,289,Shelbourne Road,4,31 P&D + 34 DP (Total),No 36,,2.90,"Shelbourne Rd 654, 3 On Lansdowne Rd",Mon-Sat 07.00-24.00,FALSE,,,,TRUE,,Yellow,-6.232971,53.336071,02/01/2012 22:45:00,NULL
132,290,Shelbourne Road,4,31 P&D + 34 DP (Total),Opposite Iona,,2.90,"Shelbourne Rd 301, 658, Estate Cottages 525",Mon-Sat 07.00-19.00,FALSE,,,,TRUE,,Yellow,-6.231876,53.33196,02/01/2012 22:45:00,NULL
133,293,Herbert Park,4,198 P&D / DP (Total),Near no 78,,2.40,"Morehampton Rd 253, 348, 401",Mon-Fri 08.00-18.30,FALSE,,,,TRUE,,Red,-6.240166,53.325297,02/01/2012 22:45:00,NULL
134,294,Waterloo Road,4,9 P&D + 72 DP (Total),Near no 89,,2.90,"Waterloo Rd 345, 346, Waterloo Lane 65, Wellington Place 224",Mon-Fri 08.00-18.30,FALSE,,,,TRUE,,Yellow,-6.245083,53.32931,02/01/2012 22:45:00,NULL
135,295,Cullenswood Park,6,57 P&D / DP,Corner of Ranelagh Road,,2.40,"Ranelagh Road 429, Woodstock Gardens 296",Mon-Sat 07.00-24.00,FALSE,,,,TRUE,,Red,-6.250201,53.32367,02/01/2012 22:45:00,NULL
136,296,Woodstock Gardens,6,18 P&D / DP,Corner of Ranelagh Rd,,2.40,"Ranelagh Rd 429, Cullenswood Pk 295",Mon-Sun 07.00-24.00,FALSE,,,,TRUE,,Red,-6.249308,53.323211,02/01/2012 22:45:00,NULL
137,297,Elmpark Avenue,6,32 P&D / DP,Near corner of Sandford Rd,,1.60,"Elmwood Ave Lwr 41, Beechwood Ave Lwr 302",Mon-Sat 07.00-24.00,FALSE,,,,TRUE,,Green,-6.254009,53.324636,02/01/2012 22:45:00,NULL
138,298,Marlborough Road,4,64 P&D / DP,No 90,,2.40,None Nearby,Mon-Fri 08.00-18.30,FALSE,,,,TRUE,,Red,-6.245535,53.322739,02/01/2012 22:45:00,NULL
139,300,Macken Street,2,20 P&D + 120 DP (Total),Near Virtual Access Irl Ltd,,2.40,"Macken St 44, 241, Pearse Sq 621, Pearse St 839",Mon-Fri 08.00-18.30,FALSE,,,,TRUE,,Red,-6.241066,53.342507,02/01/2012 22:45:00,NULL
140,303,Mornington Road,6,58 P&D / DP,No 20-21,,1.60,"Ashfield Ave 230, Beechwood Rd 389",Mon-Sun 07.00-24.00,FALSE,,,,TRUE,,Green,-6.251447,53.322941,02/01/2012 22:45:00,NULL
141,304,St. Mary's Road South,4,108 P&D / DP (Total),Junction Of Northumberland Road,,2.90,St. Mary's Rd Sth 329,Mon-Sat 07.00-19.00,FALSE,,,,TRUE,,Yellow,-6.23725,53.334617,02/01/2012 22:45:00,NULL
142,306,Clontarf Road,3,29 P&D / DP (Total),At Number 10,,1.00,None Nearby,Mon-Fri 07.00-24.00,FALSE,,,,TRUE,,Orange,-6.224005,53.363649,02/01/2012 22:45:00,NULL
143,307,Temple Street North,1,34 P&D (Total),Rory O'Connor House,,2.40,"Temple St Nth 308, 579",Mon-Sat 07.00-19.00,FALSE,,,,TRUE,,Red,-6.26264,53.356878,02/01/2012 22:45:00,NULL
144,310,Townsend Street,2,36 P&D + 19 DP (Total),at flats,,2.90,"3 On Townsend St, 4 On Lombard St E, Mark St 282, Prince's St Sth 85,",Mon-Sat 07.00-19.00,FALSE,,,,TRUE,,Yellow,-6.24973,53.345535,02/01/2012 22:45:00,NULL
145,311,Lombard Street East,2,25 P&D + 18 DP (Total),At Number 11,,2.90,"4 On Lombard St East, Townsend St 284, 310",Mon-Sat 07.00-19.00,FALSE,,,,TRUE,,Yellow,-6.248667,53.344897,02/01/2012 22:45:00,NULL
146,312,Lombard Street East,2,25 P&D + 18 DP (Total),Opposite Joyce House Entrance,,2.90,"4 On Lombard St East, Townsend St 284, 310",Mon-Sat 07.00-19.00,FALSE,,,,FALSE,,Yellow,-6.248885,53.344912,02/01/2012 22:45:00,NULL
147,313,Lombard Street East,2,25 P&D + 18 DP (Total),Murphy Solicitors,,2.90,"4 On Lombard St East, Townsend St 284, 310",Mon-Sat 07.00-19.00,FALSE,,,,TRUE,,Yellow,-6.248925,53.344477,02/01/2012 22:45:00,NULL
148,316,Longwood Avenue,2,71 P&D / DP,Junction Of South Circular Road,,2.40,3 On Clanbrassil St,Mon-Sat 07.00-24.00,FALSE,,,,TRUE,,Red,-6.273481,53.331978,02/01/2012 22:45:00,NULL
149,318,Kenilworth Square North,6,76 P&D / DP,Opposite Number 88A,,1.60,4 At Kenilworth Square,Mon-Fri 08.00-18.30,FALSE,,,,FALSE,,Green,-6.274855,53.319699,02/01/2012 22:45:00,NULL
150,319,Beechwood Avenue Upper,6,104 P&D / DP,Junction Of Dunville Avenue,,1.60,"Beechwood Rd 389, Albany Rd 142",Mon-Sun 07.00-24.00,FALSE,,,,FALSE,,Green,-6.253576,53.319451,02/01/2012 22:45:00,NULL
151,321,Coleraine Street,7,34 P&D / DP,At Kevin Barry Flats,,2.90,"Linenhall St 271, Lurgan St 752",Mon-Sun 07.00-24.00,FALSE,,,,FALSE,,Yellow,-6.273392,53.351193,02/01/2012 22:45:00,NULL
152,323,Bull Alley Street,8,7 P&D,Patrick's Park,,2.90,"St. Patrick's Close 551, Bride Rd 129",Mon-Sat 07.00-19.00,FALSE,,,,TRUE,,Yellow,-6.271647,53.340564,02/01/2012 22:45:00,NULL
153,324,Richmond Street South,2,8 P&D + 4 DP,Opposite Number 59 (AIB),,2.40,3 On Lennox Street,Mon-Sat 07.00-19.00,FALSE,,,,TRUE,,Red,-6.264671,53.332239,02/01/2012 22:45:00,NULL
154,325,Grosvenor Road,6,128 P&D / DP (Total),No 12-13,,1.60,"Grosvenor Rd 673, 674, Grosvenor Place 607, Rathgar Rd 166",Mon-Fri 08.00-18.30,FALSE,,,,TRUE,,Green,-6.2701,53.320383,02/01/2012 22:45:00,NULL
155,326,Wesley Road,6,30 P&D / DP,At Post Office,,1.00,Rathgar Rd 166,Mon-Sun 07.00-24.00,FALSE,,,,TRUE,,Orange,-6.273077,53.313642,02/01/2012 22:45:00,NULL
156,327,John Dillon Street,8,66 P&D / DP (Total),Iveagh Market,,2.90,"John Dillon St 699, 6 On Francis St",Mon-Fri 08.00-18.30,FALSE,,,,TRUE,,Yellow,-6.273928,53.342178,02/01/2012 22:45:00,NULL
157,333,Brendan Road,4,66 P&D / DP,At Number 1,,2.40,"Morehampton Rd 251, 348, Auburn Ave 485",Mon-Fri 08.00-18.30,FALSE,,,,FALSE,,Red,-6.238651,53.324033,02/01/2012 22:45:00,NULL
158,335,Watling Street,8,18 P&D,At Emmet Buildings,,2.40,None Nearby,Mon-Sat 07.00-19.00,FALSE,,,,TRUE,,Red,-6.284886,53.344366,02/01/2012 22:45:00,NULL
159,336,Milltown Road,6,,Opposite No. 38,,1.00,None Nearby,Mon-Sat 07.00-19.00,FALSE,,,,TRUE,,Orange,-6.255824,53.308346,02/01/2012 22:45:00,NULL
160,337,Effra Road,6,84 P&D / DP,Off Grosvenor Place,,1.60,"Leinster Rd W 542, 750, Grosvenor Place 607, 608",Mon-Fri 07.00-19.00,FALSE,,,,FALSE,,Green,-6.274651,53.320902,02/01/2012 22:45:00,NULL
161,338,Castlewood Terrace,6,15 P&D / DP,At Number 12,,2.40,None Nearby,Mon-Sun 07.00-24.00,FALSE,,,,FALSE,,Red,-6.263004,53.323426,02/01/2012 22:45:00,NULL
162,341,Camden Street,2,25 P&D (Total),No 72,19/04/1999,2.90,"3 On Camden St, 2 On Wexford St",Mon-Sat 07.00-19.00,TRUE,,,,TRUE,,Yellow,-6.265372,53.334953,02/01/2012 22:45:00,NULL
163,342,Pleasants Street,8,13 P&D + 19 DP (Total),No 46,19/04/1999,2.90,"Pleasants St 175, 3 On Camden St",Mon-Sat 07.00-19.00,FALSE,,,,TRUE,,Yellow,-6.265729,53.335491,02/01/2012 22:45:00,NULL
164,348,Morehampton Road,4,15 P&D + 44 DP (Total),At Bulton's Pantry,,2.40,"Morehampton Rd 251, 253, Mount Eden Rd 256, Brendan Rd 333",Mon-Sat 07.00-19.00,FALSE,,,,TRUE,,Red,-6.239835,53.324067,02/01/2012 22:45:00,NULL
165,349,Donnybrook Road (Car Park),4,16 P&D,Near Fire Station,19/04/1999,2.40,"4 On Donnybrook Rd, Pembroke Cottages 486, Victoria Ave 487",Mon-Sat 07.00-19.00,FALSE,,,,TRUE,,Red,-6.236705,53.321908,02/01/2012 22:45:00,NULL
166,350,Donnybrook Road,4,63 P&D + 51 DP (Total),Near Shell Station at Brookvale Rd,19/04/1999,2.40,"4 On Donnybrook Rd, Eglinton Tce 243",Mon-Sat 07.00-19.00,FALSE,,,,TRUE,,Red,-6.234458,53.320815,02/01/2012 22:45:00,NULL
167,352,High Street,8,9 P&D,At Church,19/04/1999,2.90,Cook St 231,Mon-Sat 07.00-19.00,FALSE,,,,TRUE,,Yellow,-6.273371,53.343296,02/01/2012 22:45:00,NULL
168,353,Amiens Street,1,58 P&D (Total),Local Employment Centre,19/04/1999,2.40,6 On Amiens Street,Mon-Sat 07.00-19.00,TRUE,,,,TRUE,,Red,-6.248149,53.3535,02/01/2012 22:45:00,NULL
169,354,Amiens Street,1,58 P&D (Total),Corner of Preston St,19/04/1999,2.40,6 On Amiens Street,Mon-Sat 07.00-19.00,FALSE,,,,TRUE,,Red,-6.248047,53.353279,02/01/2012 22:45:00,NULL
170,355,Amiens Street,1,58 P&D (Total),Near Number 85,19/04/1999,2.40,6 On Amiens Street,Mon-Sat 07.00-19.00,FALSE,,,,TRUE,,Red,-6.247186,53.354068,02/01/2012 22:45:00,NULL
171,356,Amiens Street,1,58 P&D (Total),No 3,19/04/1999,2.40,6 On Amiens Street,Mon-Sat 07.00-19.00,FALSE,,,,TRUE,,Red,-6.247249,53.354342,02/01/2012 22:45:00,NULL
172,357,North Strand Road,1 & 3,32 P&D + 3 DP (Total),Number 76,19/04/1999,1.60,"Nth Strand Rd 358, Annesley Place 814",Mon-Sat 07.00-19.00,FALSE,,,,TRUE,,Green,-6.239826,53.360057,02/01/2012 22:45:00,NULL
173,358,North Strand Road,1 & 3,32 P&D + 3 DP (Total),Fire Brigade,19/04/1999,1.60,"Nth Strand Rd 357, Annesley Place 814",Mon-Sat 07.00-19.00,FALSE,,,,TRUE,,Green,-6.239096,53.360182,02/01/2012 22:45:00,NULL
174,359,Annesley Bridge Road,3,16 P&D + 1 DP (Total),Number 25 Laundrette,19/04/1999,1.00,"Annesley Bridge Rd 513, Cadogan Rd 27, Fairview Strand 534, Fairview Ave Lwr 466",Mon-Sat 07.00-19.00,FALSE,,,,TRUE,,Green,-6.237226,53.362297,02/01/2012 22:45:00,NULL
175,360,Fairview,3,22 P&D,Corner of Merville Ave,19/04/1999,1.00,"Fairview Ave Lwr 466, Fairview Strand 534, Marino Mart 361, 540",Mon-Sat 07.00-19.00,FALSE,,,,TRUE,,Orange,-6.234496,53.363552,02/01/2012 22:45:00,NULL
176,361,Marino Mart,3,32 P&D / DP (Total),At Blue Leaf Art Gallery / Number 8-9,19/04/1999,1.00,"Marino Mart 512, 540, Fairview 360",Mon-Sat 07.00-19.00,FALSE,,,,TRUE,,Orange,-6.23243,53.364079,02/01/2012 22:45:00,NULL
177,362,Francis Street,8,43 P&D + 26 DP (Total),No 32,19/04/1999,2.90,6 On Francis St,Mon-Sat 07.00-19.00,FALSE,,,,TRUE,,Yellow,-6.274926,53.341698,02/01/2012 22:45:00,NULL
178,363,Francis Street,8,43 P&D + 26 DP (Total),Opposite Viking Lodge Pub,19/04/1999,2.90,6 On Francis St,Mon-Sat 07.00-19.00,FALSE,,,,TRUE,,Yellow,-6.275097,53.34159,02/01/2012 22:45:00,NULL
179,364,Francis Street,8,43 P&D + 26 DP (Total),No 104,19/04/1999,2.90,6 On Francis St,Mon-Sat 07.00-19.00,FALSE,,,,TRUE,,Yellow,-6.274594,53.340868,02/01/2012 22:45:00,NULL
180,365,Francis Street,8,43 P&D + 26 DP (Total),No 54,19/04/1999,2.90,6 On Francis St,Mon-Sat 07.00-19.00,FALSE,,,,TRUE,,Yellow,-6.274332,53.340752,02/01/2012 22:45:00,NULL
181,366,Francis Street,8,43 P&D + 26 DP (Total),No 64,19/04/1999,2.90,6 On Francis St,Mon-Sat 07.00-19.00,FALSE,,,,TRUE,,Yellow,-6.273701,53.339684,02/01/2012 22:45:00,NULL
182,367,North Strand Road,1 & 3,32 P&D + 3 DP (Total),Bayview Stores,27/04/1999,1.60,"Nth Strand Rd 510, Northbrook Ave Lwr 523, Nottingham St 19",Mon-Sat 07.00-19.00,FALSE,,,,TRUE,,Green,-6.242284,53.357693,02/01/2012 22:45:00,NULL
183,368,Brookvale Road (Donnybrook),4,16 P&D / DP,Off Eglinton Road,,2.40,Eglinton Rd 454,Mon-Fri 08.00-18.30,FALSE,,,,FALSE,,Red,-6.233815,53.318385,02/01/2012 22:45:00,NULL
184,370,Merrion Road,4,17 P&D / DP,At Sony Centre / Ballsbridge Park Junction,27/04/1999,2.40,Anglesea Road 288,Mon-Sat 07.00-19.00,FALSE,,,,TRUE,,Yellow,-6.23012,53.328837,02/01/2012 22:45:00,NULL
185,371,Winton Road,6,62 P&D / DP (Total),At Junction Of The Appian Way,27/04/1999,2.40,"Winton Rd 885, Leeson Park 417",Mon-Fri 08.00-18.30,FALSE,,,,TRUE,,Red,-6.24949,53.327238,02/01/2012 22:45:00,NULL
186,372,Peter Street,8,24 P&D / DP,New Building Site,,2.90,"Peter Row 613, Whitefriar Place 479, Bride St 484",Mon-Sat 07.00-19.00,FALSE,,,North side = west of whiterfier street,TRUE,,Yellow,-6.267914,53.33934,02/01/2012 22:45:00,NULL
187,374,Newmarket,8,63 P&D / DP,"No 13, East of Brabazon Place",,2.40,None Nearby,Mon-Sat 07.00-19.00,FALSE,,,North side = east of brabonza place,TRUE,,Red,-6.277387,53.338104,02/01/2012 22:45:00,NULL
188,379,St. Aidan's Park Road,3,8 P&D,At City Cycles / Junction Of Malahide Rd,,1.00,"Malahide Rd 380, The Crescent 737, Marino Mart 512",Mon-Sat 07.00-19.00,FALSE,,,,TRUE,,Orange,-6.229644,53.364604,02/01/2012 22:45:00,NULL
189,380,Malahide Road,"3, 5, & 17",16 P&D,At Number 8,,1.00,"St. Aidan's Park Rd 379, The Crescent 737",Mon-Sat 10.00-19.00,TRUE,Bus lane before 10.00,,,TRUE,,Orange,-6.229026,53.365359,02/01/2012 22:45:00,NULL
190,382,Mountjoy Square South,1,11 P&D + 8 DP (Total),No 36 Near Bus Garage,,2.40,"Mountjoy Sq Sth 381, Charles' Street Great 24",Mon-Sat 07.00-19.00,FALSE,,,South side=west of mount joy sq east,TRUE,,Red,-6.25595,53.35628,02/01/2012 22:45:00,NULL
191,383,Mountjoy Square East,1,35 P&D / DP (Total),Park Side,,2.40,"Mountjoy Sq E 720, Charles' St Great 24",Mon-Sat 07.00-19.00,FALSE,,,West side = north of mount joy sq south,TRUE,,Red,-6.256505,53.356831,02/01/2012 22:45:00,NULL
192,384,South Lotts Road,4,63 P&D / DP (Total),Opp no 33,,2.40,3 On South Lotts Rd,Mon-Sat 07.00-24.00,FALSE,,,,TRUE,,Red,-6.233186,53.338579,02/01/2012 22:45:00,NULL
193,385,Nutley Avenue,4,160 P&D / DP,Corner of Nutley Lane,,1.60,Nutley Lane 471,Mon-Fri 08.00-18.30,FALSE,,,,TRUE,,Green,-6.216111,53.318152,02/01/2012 22:45:00,NULL
194,387,Lombard Street East,2,25 P&D + 18 DP (Total),Junction Of Quays,,2.90,"4 On Lombard St East, Townsend St 284, 310",Mon-Sat 07.00-19.00,FALSE,,,,FALSE,,Yellow,-6.248081,53.346447,02/01/2012 22:45:00,NULL
195,388,Mountpleasant Avenue Lower,6,43 P&D / DP (Total),"Opposite No. 1, Junction of Canal Rd",01/08/1999,2.40,Mountpleasant Ave 797,Mon-Fri 08.00-18.30,FALSE,,,,TRUE,,Red,-6.263237,53.329845,02/01/2012 22:45:00,NULL
196,389,Beechwood Road,6,31 P&D / DP,Junction of Ashfield Avenue,,1.60,"Beechwood Ave Upr 319, Anna Villa 546, 612, Mountainview Rd 686",Mon-Sun 07.00-24.00,FALSE,,,,TRUE,,Green,-6.253111,53.321066,02/01/2012 22:45:00,NULL
197,390,Castlewood Park,6,74 P&D / DP,Corner of Castlewood Ave,01/08/1999,1.60,"Cambridge Villas 444, Belgrave Sq N 478",Mon-Sat 07.00-19.00,FALSE,,,,TRUE,,Green,-6.263633,53.322459,02/01/2012 22:45:00,NULL
198,391,Serpentine Avenue,4,60 P&D / DP (Total),Opposite no 15,,2.40,Serpentine Ave 845,Mon-Fri 07.00-19.00,FALSE,,,,TRUE,,Red,-6.226018,53.328678,02/01/2012 22:45:00,NULL
199,394,Dominick Street Upper,7,18 P&D DP,Opposite Michael H,,2.90,"7 On Dominick St Lwr, Dorset St Upr 376, 377",Mon-Fri 08.00-18.30,FALSE,,,,TRUE,,Yellow,-6.270035,53.35369,02/01/2012 22:45:00,NULL
200,395,Long Lane,8,26 P&D / DP,At Number 22,,2.40,"New Bride St 176, 647, Camden Row 177",Mon-Sun 07.00-24.00,FALSE,,,,FALSE,,Red,-6.270021,53.336171,02/01/2012 22:45:00,NULL
201,396,Belgrave Square East,6,18 P&D / DP,Opposite Park,,1.60,"Belgrave Sq N 478, Palmerston Rd 565",Mon-Fri 08.00-18.30,FALSE,,,,FALSE,,Green,-6.259629,53.322427,02/01/2012 22:45:00,NULL
202,401,Morehampton Road,4,15 P&D + 44 DP (Total),At Hotel,,2.40,"Morehampton Rd 526, Bloomfield Ave 800",Mon-Sat 07.00-19.00,FALSE,,,,TRUE,,Red,-6.242374,53.325937,02/01/2012 22:45:00,NULL
203,402,Lad Lane,2,44 P&D / DP,Opp no 10,,2.90,"Cumberland Rd 3505, 3516",Mon-Fri 08.00-18.30,FALSE,,,,TRUE,,Yellow,-6.249944,53.334463,02/01/2012 22:45:00,NULL
204,403,Sandymount Village,4,46 P&D / DP (Total),At Seafort Avenue,,1.00,6 In Sandymount Village,Mon-Sat 07.00-24.00,FALSE,,,Weast side =North of Sandymount road,TRUE,,Orange,-6.215282,53.332721,02/01/2012 22:45:00,NULL
205,404,Sandymount Village,4,46 P&D / DP (Total),At the Green / Takeaway,,1.00,6 In Sandymount Village,Mon-Sat 07.00-19.00,FALSE,,,North side =east of seafort ave,TRUE,,Orange,-6.214858,53.332124,02/01/2012 22:45:00,NULL
206,405,Sandymount Village,4,46 P&D / DP (Total),At the Green / No 14,,1.00,6 In Sandymount Village,Mon-Sat 07.00-19.00,FALSE,,,south side =east of nut grove gardens,TRUE,,Orange,-6.214833,53.331655,02/01/2012 22:45:00,NULL
207,406,Sandymount Village,4,46 P&D / DP (Total),At the Green / At Number 17,,1.00,"6 In Sandymount Village, Sandymount Castle 861",Mon-Sat 07.00-19.00,FALSE,,,W-side =claremount st,TRUE,,Orange,-6.215885,53.331474,02/01/2012 22:45:00,NULL
208,407,Sandymount Village,4,46 P&D / DP (Total),At Sandymount Road / No 85 / Xtra Vision,,1.00,6 In Sandymount Village,Mon-Sat 07.00-19.00,FALSE,,,West side =South of marine drive,TRUE,,Orange,-6.216436,53.333074,02/01/2012 22:45:00,NULL
209,408,Sandymount Village,4,46 P&D / DP (Total),At Sandymount Road / Post office,,1.00,6 In Sandymount Village,Mon-Sat 07.00-19.00,FALSE,,,East side =South of Marine Drive,TRUE,,Orange,-6.216173,53.333043,02/01/2012 22:45:00,NULL
210,409,Eccles Street,7,36 P&D + 16 DP (Total),"At Nelson Street, Opposite Machine 195",,2.40,"Eccles St 195, 703",Mon-Sat 07.00-19.00,FALSE,,,,TRUE,,Red,-6.267195,53.358418,02/01/2012 22:45:00,NULL
211,411,Leinster Road,6,208 P&D / DP (Total),At Number 38,,1.60,"Leinster Rd 609, Grosvenor Sq 684",Mon-Fri 08.00-18.30,FALSE,,,,TRUE,,Green,-6.271187,53.323224,02/01/2012 22:45:00,NULL
212,413,Charlemont Place,2,13 P&D (Total),ACC Bank,,2.90,"Charlemont Place 414, Charlemont Mall 126, Charlemont St 219",Mon-Sat 07.00-19.00,FALSE,,,,TRUE,,Yellow,-6.259784,53.330842,02/01/2012 22:45:00,NULL
213,414,Charlemont Place,2,13 P&D (Total),Glennon,,2.90,"Charlemont Place 413, Harcourt Tce 235",Mon-Sat 07.00-19.00,FALSE,,,,TRUE,,Yellow,-6.258376,53.331058,02/01/2012 22:45:00,NULL
214,418,Northbrook Road,6,120 P&D / DP (Total),Opposite Northbrook Clinic,,2.90,"Northbrook Rd 604, 653, 4 On Dartmouth Rd",Mon-Fri 08.00-18.30,FALSE,,,North side at Cambridge Terrace,TRUE,,Yellow,-6.255991,53.328865,02/01/2012 22:45:00,NULL
215,421,Verschoyle Place,2,27 P&D / DP,"No 55, Off Mount Street Lower",,2.90,"4 On Mount St Lwr, 6 On Mount St Upr",Mon-Sat 07.00-19.00,FALSE,,,,TRUE,,Yellow,-6.245205,53.338428,02/01/2012 22:45:00,NULL
216,424,Elgin Road,4,112 P&D / DP (Total),Near corner of Raglan Lane,,2.90,"Elgin Rd 249, Raglan Lane 503, Wellington Rd 181",Mon-Fri 08.00-18.30,FALSE,,,,TRUE,,Yellow,-6.239758,53.330554,02/01/2012 22:45:00,NULL
217,425,Sussex Road,4,9 P&D + 45 DP (Total),Bank of Ireland,,2.90,"Sussex Road 606, 410, Leeson St Upr 225, 5 On Burlington Rd",Mon-Sat 07.00-19.00,FALSE,,,,TRUE,,Yellow,-6.248999,53.329525,02/01/2012 22:45:00,NULL
218,426,St. Ignatius' Road,7,112 P&D / DP,Near corner of Drumcondra Rd,,1.60,Drumcondra Rd Lwr 848,Mon-Fri 08.00-18.30,FALSE,,,,TRUE,,Green,-6.260493,53.361194,02/01/2012 22:45:00,NULL
219,429,Ranelagh,6,28 P&D + 32 DP (Total),Duds o suds Dry cleaning,,2.40,"Cullenswood Pk 295, Woodstock Gardens 296",Mon-Sat 10.00-15.00,TRUE,Before 10 / After 15,,,TRUE,,Red,-6.250491,53.323493,02/01/2012 22:45:00,NULL
220,430,Amiens Street,1,58 P&D (Total),At Terry Rogers',,2.40,"6 On Amiens Street, Foley St 757",Mon-Sat 07.00-19.00,FALSE,,,,FALSE,,Red,-6.249536,53.352269,02/01/2012 22:45:00,NULL
221,431,Ranelagh,6,28 P&D + 32 DP (Total),No 1A,,2.40,"Ranelagh Ave 798, Mountpleasant Sq 432",Mon-Sat 07.00-19.00,FALSE,,,,TRUE,,Red,-6.255962,53.326161,02/01/2012 22:45:00,NULL
222,433,Aughrim Street,7,70 P&D / DP (Total),Opposite Sports Centre,,1.60,"Aughrim St 124, St. Joseph's Rd 469",Mon-Fri 08.00-18.30,FALSE,,,,FALSE,,Green,-6.29018,53.354715,02/01/2012 22:45:00,NULL
223,434,Meath Street,8,15 P&D + 8 DP (Total),No 25,,2.40,"Meath St 495, Meath Place 492, Catherine St 548",Mon-Sat 07.00-19.00,FALSE,,,Westside North of meath place,TRUE,,Red,-6.278652,53.341243,02/01/2012 22:45:00,NULL
224,435,Manor Street,7,4 P&D + 64 DP (Total),At school,,1.60,"Manor St 439, 441, Kirwan St 521, Manor Place 870",Mon-Sun 07.00-24.00,FALSE,,,East side south of kirwan street,TRUE,,Green,-6.283363,53.352023,02/01/2012 22:45:00,NULL
225,438,Grand Canal Quay,2,44 P&D / DP,At Number 2,,2.40,"Grand Canal Quay 626, Grand Canal St Lwr 3472 (€2.50)",Mon-Fri 08.00-18.30,FALSE,,,,TRUE,,Red,-6.239668,53.339007,02/01/2012 22:45:00,NULL
226,439,Manor Street,7,4 P&D + 64 DP (Total),No 75,,1.60,"Manor St 435, 441, Kirwan St 521, Manor Place 870",Mon-Sun 07.00-24.00,FALSE,,,West side of manor place,TRUE,,Green,-6.283886,53.35218,02/01/2012 22:45:00,NULL
227,441,Manor Street,7,4 P&D + 64 DP (Total),No 30,,1.60,"Manor St 435, 439, Kirwan St 521, Manor Place 870",Mon-Sun 07.00-24.00,FALSE,,,East side =north of kirwin street,TRUE,,Green,-6.284376,53.352905,02/01/2012 22:45:00,NULL
228,442,Belmont Avenue,4,55 P&D / DP,Donnybrook Manor,,2.40,"4 On Donnybrook Rd, Victoria Ave 487, Morehampton Rd 251",Mon-Fri 08.00-18.30,FALSE,,,East side= south of Donnybrook manor,TRUE,,Red,-6.238738,53.321928,02/01/2012 22:45:00,NULL
229,443,Clonskeagh Road,6 & 14,78 P&D / DP (Total),Opp no 95 / Roebuck Rd,,1.00,"Clonskeagh Rd 531, 590",Mon-Sat 07.00-19.00,FALSE,,,West side,TRUE,,Orange,-6.238405,53.314598,02/01/2012 22:45:00,NULL
230,444,Cambridge Villas,6,42 P&D / DP,No 5,,1.60,"Castlewood Park 390, Church Ave 562",Mon-Sat 07.00-19.00,FALSE,,,,TRUE,,Green,-6.262387,53.320799,02/01/2012 22:45:00,NULL
231,445,Hendrick Lane,7,6 P&D / DP,Eastside; middle of the lane,,2.40,"Blackhall Place 746, Haymarket 840",Mon-Fri 08.00-18.30,FALSE,,,,FALSE,,Red,-6.281617,53.347599,02/01/2012 22:45:00,NULL
232,451,Dartmouth Road,6,51 P&D / DP (Total),At side of no 11 Cambridge Tce,,2.90,"Dartmount Road 450, 227, 605",Mon-Fri 08.00-18.30,FALSE,,,Southside at cambridge Terrace,TRUE,,Yellow,-6.256544,53.329647,02/01/2012 22:45:00,NULL
233,453,Conyngham Road,8,46 P&D + 12 DP (Total),Outside Garda Vehicle Impound / Opposite Number 6-9,,1.00,"Parkgate St 113, 135",Mon-Sat 07.00-19.00,FALSE,,,,FALSE,,Orange,-6.295871,53.348297,02/01/2012 22:45:00,NULL
234,454,Eglinton Road,4,80 P&D / DP (Total),At Number 30,15/04/2002,2.40,Brookvale Road 368,Mon-Sat 07.00-19.00,FALSE,,,,FALSE,,Red,-6.237891,53.318393,02/01/2012 22:45:00,NULL
235,455,Ballyfermot Road,10,83 P&D (Total),At Kiely's Pharmacy (Number 280),,0.60,Ballyfermot Rd 756,Mon-Sat 07.00-19.00,FALSE,,,,FALSE,,Blue,-6.351279,53.342211,02/01/2012 22:45:00,NULL
236,456,Brighton Square,6,178 P&D / DP (Total),At Park,15/04/2002,1.00,"Brighton Sq 157, Garville Ave Upr 63, Brighton Rd 734",Mon-Sat 07.00-24.00,FALSE,,,,FALSE,,Orange,-6.279578,53.314948,02/01/2012 22:45:00,NULL
237,457,Pearse Street,2,,At 146 / Opposite 70,,2.40,"Pearse St 459, 544, 857,  Sandwith St 461, 2 On Erne St",Mon-Fri 08.00-18.30,FALSE,,,,FALSE,,Red,-6.245707,53.343311,02/01/2012 22:45:00,NULL
238,458,Pearse Street,2,,Opposite Machine #839,,2.40,"Pearse St 839, Macken St 44, 300, Pearse Sq 621",Mon-Sat 07.00-19.00,FALSE,,,,FALSE,,Red,-6.240228,53.342538,02/01/2012 22:45:00,NULL
239,459,Pearse Street,2,,At new appartments,01/02/2000,2.40,"Sandwith St 461, Pearse St 457, 4 On Lombard St East",Mon-Sat 07.00-19.00,FALSE,,,,TRUE,,Red,-6.247035,53.343761,02/01/2012 22:45:00,NULL
240,461,Sandwith Street,2,43 P&D / DP,At Apartments,01/02/2000,2.90,Townsend St 284,Mon-Fri 08.00-18.30,FALSE,,,,TRUE,,Yellow,-6.246828,53.344488,02/01/2012 22:45:00,NULL
241,464,Pembroke Park,4,76 P&D / DP,Number 27,01/02/2000,2.40,Herbert Park 293,Mon-Fri 08.00-18.30,FALSE,,,,TRUE,,Red,-6.240016,53.326632,02/01/2012 22:45:00,NULL
242,465,St Kevin's Parade,8,110 P&D,No 27,01/02/2000,2.40,Ovoca Rd 588,Mon-Fri 08.00-18.30,FALSE,,,,TRUE,,Red,-6.272861,53.334108,02/01/2012 22:45:00,NULL
243,466,Fairview Avenue Lower,3,22 P&D / DP,Fairview Strand Junction,01/02/2000,1.00,"Fairview Strand 534, Fairview 360, Annesley Bridge Rd 359, 513",Mon-Sat 07.00-19.00,FALSE,,,west side at fairview,TRUE,,Orange,-6.236107,53.363182,02/01/2012 22:45:00,NULL
244,467,Annamoe Road,7,4 P&D + 8 DP,Hanlon's Pub,01/02/2000,1.60,None Nearby,Mon-Sat 07.00-19.00,FALSE,,,North side east of old cabra road,TRUE,,Green,-6.288442,53.357421,02/01/2012 22:45:00,NULL
245,469,St. Joseph's Road,7,28 P&D / DP,Across From No. 11,,1.60,"Prussia St 25, Aughrim St 124, 433",Mon-Sun 07.00-24.00,FALSE,,,,TRUE,,Green,-6.288189,53.354663,02/01/2012 22:45:00,NULL
246,471,Nutley Lane,4,46 P&D / DP (Total),At St. Vincent's Hospital,,1.60,"Nutley Lane 475, Nutley Ave 385",Mon-Sat 07.00-19.00,FALSE,,,,FALSE,,Green,-6.216046,53.317275,02/01/2012 22:45:00,NULL
247,474,North Wall Quay,1,31 P&D (Total),At Tilestyle,13/04/2002,1.60,"Nth Wall Quay 156, Castleforbes Road 856",Mon-Sat 07.00-19.00,FALSE,,,,FALSE,,Green,-6.23211,53.347106,02/01/2012 22:45:00,NULL
248,475,Nutley Lane,4,46 P&D / DP (Total),Opposite Cul-de-sac,,1.60,"Nutley Lane 471, Nutley Ave 385",Mon-Sat 07.00-19.00,FALSE,,,,FALSE,,Green,-6.218139,53.31614,02/01/2012 22:45:00,NULL
249,478,Belgrave Square North,6,13 P&D / DP,Opposite Number 49,27/03/2000,1.60,"Belgrave Sq E 396, Castlewood Pk 390",Mon-Fri 08.00-18.30,FALSE,,,,TRUE,,Green,-6.261376,53.323143,02/01/2012 22:45:00,NULL
250,479,Whitefriar Place,8,19 P&D / DP,"Exact middle of the street, south-side",27/03/2000,2.90,"York St 2136, 2147, Peter St 372",Mon-Sat 07.00-19.00,FALSE,,,,TRUE,,Yellow,-6.266548,53.339643,02/01/2012 22:45:00,NULL
251,480,Francis Street,8,43 P&D + 26 DP (Total),Near Tivoli,27/03/2000,2.90,6 On Francis St,Mon-Sat 07.00-19.00,FALSE,,,,TRUE,,Yellow,-6.275866,53.342713,02/01/2012 22:45:00,NULL
252,482,Killester DART Station,5,,At DART Station,03/12/2001,1.00,None Nearby,Mon-Fri 08.00-18.30,FALSE,,,,TRUE,,Orange,-6.204202,53.373021,02/01/2012 22:45:00,NULL
253,484,Bride Street,8,45 P&D,67-69,27/03/2000,2.90,"Peter St 372, Bishop St 463",Mon-Sat 07.00-19.00,FALSE,,,East Side - North of Peters St,TRUE,,Yellow,-6.269514,53.339397,02/01/2012 22:45:00,NULL
254,485,Auburn Avenue,4,47 P&D / DP,At Side of 114 Morehampton Road,29/03/2000,2.40,"Morehampton Rd 251, 348, Victoria Ave 487, Donnybrook Rd 245, 246",Mon-Sun 07.00-24.00,FALSE,,,,TRUE,,Red,-6.238413,53.323393,02/01/2012 22:45:00,NULL
255,486,Pembroke Cottages (Donnybrook),4,44 P&D / DP,Opposite Number 74,29/03/2000,2.40,"4 On Donnybrook Rd, Mulberry Lane 677, Eglinton Tce 243",Mon-Sat 07.00-24.00,FALSE,,,,TRUE,,Red,-6.236237,53.322708,02/01/2012 22:45:00,NULL
256,487,Victoria Avenue,4,29 P&D / DP,At side of 126 Morehampton Rd,29/03/2000,2.40,"4 On Donnybrook Rd, Auburn Ave 485, Home Villas 561",Mon-Fri 08.00-18.30,FALSE,,,,TRUE,,Red,-6.237853,53.323098,02/01/2012 22:45:00,NULL
257,489,Hatch Street Upper,2,58 P&D (Total),Styne House,29/03/2000,2.90,6 On Hatch St Upr,Mon-Sat 07.00-19.00,FALSE,,,,TRUE,,Yellow,-6.261741,53.334092,02/01/2012 22:45:00,NULL
258,490,Sherrard Street,1,37 P&D / DP,Opposite Number 3,04/04/2000,2.40,"Gardiner St Upr 571, Synott Place 436",Mon-Fri 08.00-18.30,FALSE,,,,TRUE,,Red,-6.259963,53.358651,02/01/2012 22:45:00,NULL
259,491,Collin's Avenue Extension,5,25 P&D / DP,"Opposite DCU Main Entrance, At Number 560",,1.00,None Nearby,Mon-Fri 08.00-18.30,FALSE,,,,FALSE,,Orange,-6.25505,53.38659,02/01/2012 22:45:00,NULL
260,492,Meath Place,8,26 P&D / DP,At Number 42,,2.40,"Meath St 434, 495, Gray St 649",Mon-Sat 07.00-24.00,FALSE,,,,FALSE,,Red,-6.279593,53.341,02/01/2012 22:45:00,NULL
261,493,Raheny Village,5,19 P&D + 16 DP (Total),At Number 17 / Opposite Raheny Carpets,,0.60,"Raheny Village 706, 718",Mon-Sat 07.00-24.00,FALSE,,,,FALSE,,Blue,-6.175039,53.379588,02/01/2012 22:45:00,NULL
262,495,Meath Street,8,15 P&D + 8 DP (Total),No 15,28/04/2000,2.40,"Meath St 434, 3 On Thomas St",Mon-Sat 07.00-19.00,FALSE,,,,TRUE,,Red,-6.278963,53.341832,02/01/2012 22:45:00,NULL
263,496,St. John's Road West,8,,Opposite Heuston Station,13/04/2002,1.60,None Nearby,Mon-Sat 07.00-19.00,FALSE,,,,TRUE,,Green,-6.293324,53.345898,02/01/2012 22:45:00,NULL
264,497,Castle Street,2,14 P&D+2 disabled,Off Werburgh Street,28/04/2000,2.90,"Werburgh St 247, Fishamble St 556, 557, Ship St Little 131",Mon-Sat 07.00-19.00,FALSE,,,,TRUE,,Yellow,-6.269514,53.343279,02/01/2012 22:45:00,NULL
265,499,Terenure Road North,6,7 P&D (Total),At Charity Shop,,1.00,Brighton Sq 146,Mon-Sat 07.00-19.00,FALSE,,,,TRUE,,Orange,-6.280736,53.316698,02/01/2012 22:45:00,NULL
266,500,Townsend Street,2,36 P&D + 19 DP (Total),Dept of Social Community,28/04/2000,2.90,"3 On Townsend St, Shaw St 328, Luke St 785",Mon-Sat 07.00-19.00,FALSE,,,,TRUE,,Yellow,-6.253537,53.345935,02/01/2012 22:45:00,NULL
267,501,Percy Place,4,121 P&D / DP (Total),Opp no 3,28/04/2000,2.90,"Percy Place 238, Estate Cottages 33, Northumberland Rd 528",Mon-Sat 07.00-19.00,FALSE,,,,TRUE,,Yellow,-6.240618,53.337158,02/01/2012 22:45:00,NULL
268,503,Clyde Road,4,22 P&D / DP (Total),Corner of Raglan Lane,28/04/2000,2.90,"3 On Clyde Rd, Elgin Rd 424, Wellington Place 224, Wellington Rd 182",Mon-Fri 08.00-18.30,FALSE,,,,TRUE,,Yellow,-6.240167,53.328491,02/01/2012 22:45:00,NULL
269,505,Pembroke Road,4,103 P&D / DP (Total),Corner of Raglan Road,29/04/2000,2.90,"4 On Pembroke Rd, Raglan Rd 287",Mon-Sat 07.00-19.00,FALSE,,,,TRUE,,Yellow,-6.23738,53.332186,02/01/2012 22:45:00,NULL
270,506,Pembroke Road,4,103 P&D / DP (Total),Wellington Road,29/04/2000,2.90,4 On Pembroke Rd,Mon-Sat 07.00-19.00,FALSE,,,,TRUE,,Yellow,-6.24017,53.332487,02/01/2012 22:45:00,NULL
271,507,Pembroke Road,4,103 P&D / DP (Total),Number 18,29/04/2000,2.90,"4 On Pembroke Rd, Eastmoreland Place 3439",Mon-Sat 07.00-19.00,FALSE,,,,TRUE,,Yellow,-6.241532,53.332753,02/01/2012 22:45:00,NULL
272,510,North Strand Road,1 & 3,32 P&D + 3 DP (Total),At Number 54,03/05/2000,1.60,"Nth Strand Rd 367, Nottingham St 19, Northbrook Ave Lwr 523",Mon-Sat 07.00-19.00,FALSE,,,,TRUE,,Green,-6.242268,53.357917,02/01/2012 22:45:00,NULL
273,512,Marino Mart,3,32 P&D / DP (Total),Opp Marino College,04/05/2000,1.00,"St. Aidan's Park Rd 379, Marino Mart 361",Mon-Sat 07.00-19.00,FALSE,,,,TRUE,,Orange,-6.230489,53.364204,02/01/2012 22:45:00,NULL
274,513,Annesley Bridge Road,3,16 P&D + 1 DP (Total),At Fairview,04/05/2000,1.00,"Annesley Bridge Rd 359, Cadogan Rd 27, Fairview Strand 534, Fairview Ave Lwr 466",Mon-Sat 07.00-19.00,FALSE,,,,TRUE,,Orange,-6.237006,53.362119,02/01/2012 22:45:00,NULL
275,516,Connaught Street,7,62 P&D / DP (Total),Number 24,04/05/2000,1.60,"Connaught St 45, Ulster St 518",Mon-Fri 08.00-18.30,FALSE,,,,TRUE,,Green,-6.274355,53.362836,02/01/2012 22:45:00,NULL
276,519,Munster Street,7,29 P&D / DP,No 36-37,04/05/2000,1.60,"Ulster St 518, Royse Rd 37",Mon-Fri 08.00-18.30,FALSE,,,,TRUE,,Green,-6.273411,53.363304,02/01/2012 22:45:00,NULL
277,521,Kirwan Street,7,23 P&D / DP,No 12-13,09/05/2000,1.60,3 on Manor St,Mon-Fri 08.00-18.30,FALSE,,,4 on Manor Street,TRUE,,Green,-6.282843,53.352741,02/01/2012 22:45:00,NULL
278,522,Stanhope Street,7,11 P&D / DP,Corner of Grangegorman Lwr,09/05/2000,1.60,"Brunswick St Nth 163, 641 (€2.00)",Mon-Fri 08.00-18.30,FALSE,,,,TRUE,,Green,-6.279951,53.352008,02/01/2012 22:45:00,NULL
279,523,Northbrook Avenue Lower,3,41 P&D / DP,Under The Bridge,,1.60,"Nottingham St 19, North Strand Rd 367, 510",Mon-Sat 07.00-24.00,FALSE,,,,TRUE,,Green,-6.240829,53.358431,02/01/2012 22:45:00,NULL
280,525,Estate Cottages (Ballsbridge),4,9 P&D / DP,Junction Of Shelbourne Road / Outside Number 2,10/05/2000,2.90,"Shelbourne Rd 301, Merrion Rd 370",Mon-Sun 07.00-24.00,FALSE,,,,TRUE,,Yellow,-6.231705,53.330424,02/01/2012 22:45:00,NULL
281,526,Morehampton Road,4,15 P&D + 44 DP (Total),At Number 34,10/05/2000,2.40,"Morehampton Rd 401, Bloomfield Ave 800",Mon-Sat 07.00-19.00,FALSE,,,,TRUE,,Red,-6.242651,53.326495,02/01/2012 22:45:00,NULL
282,529,Cathedral Street,1,2 P&D,Opposite Number 7 / At Trocaire,10/05/2000,2.90,"Marlborough St 115, 116, 117",Mon-Sat 07.00-19.00,FALSE,,,,TRUE,,Yellow,-6.259572,53.350541,02/01/2012 22:45:00,NULL
283,531,Clonskeagh Road,6 & 14,78 P&D / DP (Total),No 53,11/05/2000,1.00,"Clonskeagh Rd 590, 443",Mon-Fri 08.00-17.30,FALSE,,,,TRUE,,Orange,-6.237531,53.315678,02/01/2012 22:45:00,NULL
284,533,Hollybrook Road,3,52 P&D,No 51 Corner of Clontarf Rd,11/05/2000,1.00,Clontarf Road 832,Mon-Sat 07.00-24.00,FALSE,,,,TRUE,,Orange,-6.218677,53.363147,02/01/2012 22:45:00,NULL
285,534,Fairview Strand,3,2 P&D,Opp no 12,12/05/2000,1.00,"Fairview Ave Lwr 466, Fairview 360, Annesley Bridge Rd 359, 513",Mon-Sat 07.00-19.00,FALSE,,,,TRUE,,Orange,-6.235999,53.362839,02/01/2012 22:45:00,NULL
286,535,Eglinton Road,4,80 P&D / DP (Total),At Number 77,15/04/2002,2.40,None Nearby,Mon-Fri 08.00-18.30,FALSE,,,,FALSE,,Red,-6.24034,53.318536,02/01/2012 22:45:00,NULL
287,536,Morning Star Avenue,7,,Opposite Whitworth Hall,15/05/2000,2.40,None Nearby,Mon-Sat 07.00-19.00,FALSE,,,,TRUE,,Red,-6.275778,53.35163,02/01/2012 22:45:00,NULL
288,538,Simmonscourt Road,4,72 P&D / DP (Total),Near Entrance To RDS Showgrounds,18/05/2000,2.40,3 On Simmonscourt Rd,Mon-Fri 08.00-18.30,FALSE,,,,TRUE,,Red,-6.22689,53.325636,02/01/2012 22:45:00,NULL
289,539,Simmonscourt Road,4,72 P&D / DP (Total),Entrance to RDS showgrounds,18/05/2000,2.40,3 On Simmonscourt Rd,Mon-Fri 08.00-18.30,FALSE,,,,TRUE,,Red,-6.228876,53.324802,02/01/2012 22:45:00,NULL
290,540,Marino Mart,3,32 P&D / DP (Total),At Post Office,17/04/2002,1.00,"Marino Mart 361, Fairview 360",Mon-Sat 07.00-24.00,FALSE,,,,FALSE,,Orange,-6.233076,53.364247,02/01/2012 22:45:00,NULL
291,541,Beechwood Park,2,30 P&D / DP,Off Dunville Avenue,,1.60,"Dunville Av 692, Annesley Pk 494, Killeen Rd 836",Mon-Fri 07.00-19.00,FALSE,,,,TRUE,,Green,-6.257866,53.32132,02/01/2012 22:45:00,NULL
292,542,Leinster Road West,6,90 P&D / DP (Total),No 13,24/05/2000,1.60,"Harold's Cross Rd 729, Effra Rd 337, Leinster Rd W 750",Mon-Fri 08.00-18.30,FALSE,,,,TRUE,,Green,-6.278433,53.319987,02/01/2012 22:45:00,NULL
293,543,Greenmount Road,6,60 P&D / DP (Total),"Opposite Number 7, at 'Cremorne'",,1.00,Healthfield Rd 749,Mon-Fri 08.00-18.30,FALSE,,,,FALSE,,Orange,-6.280033,53.309596,02/01/2012 22:45:00,NULL
294,544,Pearse Street,2,,Corner of Pearse Square,06/06/2000,2.40,"Pearse Sq 621, Pearse St 457, 857, Macken St 44, 300, Brunswick Place 169",Mon-Fri 08.00-18.30,FALSE,,,,TRUE,,Red,-6.242801,53.343034,02/01/2012 22:45:00,NULL
295,545,Cabra Road,7,18 P&D,Xtra-Vision,06/06/2000,1.60,None Nearby,Mon-Sat 07.00-19.00,FALSE,,,,TRUE,,Green,-6.284548,53.361172,02/01/2012 22:45:00,NULL
296,546,Anna Villa,6,75 P&D / DP (Total),Number 11,07/06/2000,1.60,"Mountainview Rd 686, Beechwood Rd 389, Anna Villa 612",Mon-Sun 07.00-24.00,FALSE,,,,TRUE,,Green,-6.251862,53.321451,02/01/2012 22:45:00,NULL
297,547,Glengarriff Parade,7,82 P&D / DP,Opp no 9 Corner of NCRd,07/06/2000,1.60,Innisfallen Parade 423,Mon-Fri 08.00-18.30,FALSE,,,,FALSE,,Green,-6.266034,53.36043,02/01/2012 22:45:00,NULL
298,548,Catherine Street,8,12 P&D / DP,Off Swift's Alley,21/06/2000,2.40,"Meath St 434, Carman's Hall 690, Ash St 648",Mon-Fri 08.00-18.30,FALSE,,,,TRUE,,Red,-6.277359,53.341198,02/01/2012 22:45:00,NULL
299,549,Rosemount Road,7,32 P&D / DP,At NCR Junction / At Side Of Number 284,21/06/2000,2.40,Nth Circular Rd 59,Mon-Fri 08.00-18.30,FALSE,,,,FALSE,,Red,-6.278915,53.359493,02/01/2012 22:45:00,NULL
300,550,Brighton Square,6,178 P&D / DP (Total),Opposite Number 35,15/04/2002,1.00,"Brighton Sq 146, 157, 456",Mon-Sat 07.00-24.00,FALSE,,,,FALSE,,Orange,-6.280126,53.315487,02/01/2012 22:45:00,NULL
301,551,St. Patrick's Close,8,6 P&D / DP,Corner Of Kevin Street,06/07/2000,2.90,Bull Alley St 323,Mon-Sat 07.00-19.00,FALSE,,,,TRUE,,Yellow,-6.270558,53.338489,02/01/2012 22:45:00,NULL
302,552,Finglas Village,11,96 P&D (Total),"On Main Street, Opposite Falcon Travel",20/07/2000,0.60,4 In Finglas Village,Mon-Sat 07.00-19.00,FALSE,,,,TRUE,,Blue,-6.300128,53.389604,02/01/2012 22:45:00,NULL
303,553,Finglas Vliiage,11,96 P&D (Total),"In The Car Park, Opposite Shamrock Lodge",20/07/2000,0.60,4 In Finglas Village,Mon-Sat 07.00-19.00,TRUE,,,,TRUE,,Blue,-6.299718,53.390084,02/01/2012 22:45:00,NULL
304,555,South Lotts Road,4,63 P&D / DP (Total),Near Sth Dock St,21/07/2000,2.40,"South Dock St 35, Hastings St 642, Penrose St 640, South Lotts Rd 637",Mon-Sat 07.00-24.00,FALSE,,,,TRUE,,Red,-6.231839,53.340569,02/01/2012 22:45:00,NULL
305,556,Fishamble Street,8,13 P&D (Total),Opp Civic Offices,24/07/2000,2.90,"Fishamble St 557, Castle St 497",Mon-Sat 07.00-19.00,FALSE,,,,TRUE,,Yellow,-6.269703,53.34445,02/01/2012 22:45:00,NULL
306,557,Fishamble Street,8,13 P&D (Total),Darkey Kellys Pub,18/08/2000,2.90,"Fishamble St 556, Castle St 497",Mon-Sat 07.00-19.00,FALSE,,,,TRUE,,Yellow,-6.26997,53.344007,02/01/2012 22:45:00,NULL
307,559,Finglas Village,11,96 P&D (Total),"On Seamus Ennis Road, At Superquinn",25/07/2000,0.60,4 In Finglas Village,Mon-Sat 07.00-19.00,FALSE,,,,TRUE,,Blue,-6.299082,53.390209,02/01/2012 22:45:00,NULL
308,560,Blackberry Lane,6,11 P&D / DP,Corner of Rathmines Road Lower,25/07/2000,1.60,None Nearby,Mon-Sat 07.00-19.00,FALSE,,,,TRUE,,Green,-6.264734,53.328557,02/01/2012 22:45:00,NULL
309,561,Home Villas,4,15 P&D / DP,"At The Park, At The Northernmost Tip Of The Esatate",25/07/2000,2.40,"Mulberry Lane 677, Auburn Ave 485, Victoria Ave 487",Mon-Fri 07.00-19.00,FALSE,,,,TRUE,,Red,-6.235154,53.325075,02/01/2012 22:45:00,NULL
310,563,Blessington Street,7,49 P&D / DP (Total),Number 68,16/08/2000,2.40,Blessington St 250,Mon-Sat 07.00-24.00,FALSE,,,,TRUE,,Red,-6.266972,53.35644,02/01/2012 22:45:00,NULL
311,564,Finglas Village,11,96 P&D (Total),"In The Car Park, At Paddy Powers (Number 2/3)",16/08/2000,0.60,4 In Finglas Village,Mon-Sat 07.00-19.00,FALSE,,,,TRUE,,Blue,-6.299236,53.390104,02/01/2012 22:45:00,NULL
312,565,Palmerston Road,6,112 P&D / DP (Total),Number 82,16/08/2000,1.60,"Killeen Rd 836, Palmerston Rd 736, Ormond Rd S 164",Mon-Fri 07.00-18.30,FALSE,,,,TRUE,,Green,-6.259481,53.320267,02/01/2012 22:45:00,NULL
313,567,Mount Argus (Harold's Cross),6,4 P&D,At Church Main Gate,,1.60,Harold's Cross Road 728,Mon-Sat 07.00-19.00,FALSE,,,,FALSE,,Green,-6.27995,53.324112,02/01/2012 22:45:00,NULL
314,568,St. Anne's Road South,8,24 P&D / DP,Junction of South Circular Road,05/09/2000,1.00,Dolphin Avenue 835,Mon-Sat 08.00-18.30,FALSE,,,,TRUE,,Orange,-6.285954,53.331962,02/01/2012 22:45:00,NULL
315,569,Conyngham Road,8,46 P&D + 12 DP (Total),At Parkgate (Sarsfields) Motors,12/09/2000,1.00,Conyngham Rd 731,Mon-Fri 10.00-16.00,TRUE,before10.00after16.00,,,TRUE,,Orange,-6.299121,53.348137,02/01/2012 22:45:00,NULL
316,570,Usher's Quay / Usher's Street,8,50 P&D / DP,At flats,12/09/2000,2.40,"Island St 763, 4 On Merchant's Quay",Mon-Fri 08.00-18.30,FALSE,,,,TRUE,,Red,-6.278494,53.345738,02/01/2012 22:45:00,NULL
317,571,Gardiner Street Upper,1,9 P&D,Near the church,13/09/2000,2.40,"Sherrard St 490, Synott Place 436",Mon-Sat 07.00-19.00,FALSE,,,,TRUE,,Red,-6.260216,53.358019,02/01/2012 22:45:00,NULL
318,573,Erne Street Lower,2,42 P&D / DP,At Worldcom,20/09/2000,2.40,"Lime St 3373, Pearse St 458, 544",Mon-Sat 07.00-19.00,FALSE,,,,TRUE,,Red,-6.244231,53.343856,02/01/2012 22:45:00,NULL
319,575,Leinster Road,6,208 P&D / DP (Total),No 101,06/10/2000,1.00,"Tivolie Ave 793, Leinster Rd W 750",Mon-Sat 07.00-24.00,FALSE,,,,TRUE,,Green,-6.278055,53.321668,02/01/2012 22:45:00,NULL
320,576,Mayor Street Lower,1,54 P&D / DP (Total),Off Commons Street near Spar,06/10/2000,2.40,"Mayor St Lwr 577, 580, 581, Commons St 437, 574",Mon-Fri 08.00-18.30,FALSE,,,,TRUE,,Red,-6.244699,53.349395,02/01/2012 22:45:00,NULL
321,578,Drumcondra Road Upper,9,10 P&D (Total),"At Number 14, First Active Insurance",06/10/2000,1.00,Ormond Rd 159,Mon-Sat 07.00-19.00,FALSE,,,,TRUE,,Orange,-6.254513,53.36923,02/01/2012 22:45:00,NULL
322,579,Temple Street North,1,34 P&D (Total),Belvedere College Car Park / Across From Machine 308,,2.40,"Temple St Nth 307, 308",Mon-Sat 07.00-19.00,FALSE,,,,TRUE,,Red,-6.261656,53.35617,02/01/2012 22:45:00,NULL
323,583,Cornmarket Street,8,7 P&D,MRCB,06/10/2000,2.90,Oliver Bond St 383,Mon-Sat 07.00-19.00,FALSE,,,,TRUE,,Yellow,-6.275452,53.34334,02/01/2012 22:45:00,NULL
324,584,Winton Avenue,6,66 P&D / DP,Off Rathgar Ave No 11,,1.00,"Wesey Rd 326, Garville Mews 713",Mon-Sun 07.00-24.00,FALSE,,,,TRUE,,Orange,-6.274389,53.314391,02/01/2012 22:45:00,NULL
325,585,South Circular Road,8,10 P&D / DP (Total),At Number 599,,1.00,Emmet Rd 109,Mon-Sat 07.00-19.00,FALSE,,,,TRUE,,Orange,-6.306576,53.339248,02/01/2012 22:45:00,NULL
326,586,South Circular Road,8,10 P&D / DP (Total),At Number 588,,1.00,"Mountshannon Rd 651, Brookfield Rd 667, Mayfield Rd 650",Mon-Sat 07.00-19.00,FALSE,,,,TRUE,,Orange,-6.30068,53.33876,02/01/2012 22:45:00,NULL
327,589,Dufferin Avenue,8,73 P&D / DP,At South Circular Road / No 46,,1.60,"Washington St 38, Greenville Tce 34, St. Catherine's Ave 759",Mon-Fri 08.00-18.30,FALSE,,,,TRUE,,Green,-6.280243,53.332528,02/01/2012 22:45:00,NULL
328,590,Clonskeagh Road,6 & 14,78 P&D / DP (Total),No 5,11/10/2000,1.00,"Clonskeagh Rd 531, 443",Mon-Sat 07.00-24.00,FALSE,,,,TRUE,,Orange,-6.237988,53.316422,02/01/2012 22:45:00,NULL
329,591,Rathfarnham Road,6 & 14,14 P&D,No 9,09/11/2000,1.00,"Beechlawn Way 733, Fergus Rd 125",Mon-Sat 07.00-19.00,FALSE,,,,FALSE,,Orange,-6.283921,53.309243,02/01/2012 22:45:00,NULL
330,592,Hanover Street East,2,77 P&D / DP,At Townsend Street Junction,,2.40,"Windmill Lane 635, Creighton Street 422",Mon-Fri 08.00-18.30,FALSE,,,,FALSE,,Red,-6.246173,53.345133,02/01/2012 22:45:00,NULL
331,593,Bath Avenue,4,77 P&D / DP (Total),Corner of Shaw's Lane,20/11/2000,2.40,"Bath Ave 52, 594",Mon-Fri 08.00-18.30,FALSE,,,,TRUE,,Red,-6.23202,53.33723,02/01/2012 22:45:00,NULL
332,594,Bath Avenue,4,77 P&D / DP (Total),Opposite Number 83,,2.40,"Bath Ave 52, 593",Mon-Fri 08.00-18.30,FALSE,,,,FALSE,,Red,-6.228723,53.337535,02/01/2012 22:45:00,NULL
333,600,James' Street,8,22 P&D + 9 DP (Total),At Guinness,03/03/2001,1.60,"James' St 601, Echlin St 615",Mon-Sat 07.00-19.00,FALSE,,,,TRUE,,Green,-6.286693,53.343449,02/01/2012 22:45:00,NULL
334,601,James' Street,8,22 P&D + 9 DP (Total),Opposite Post Office,03/03/2001,1.60,"James' St 600, Echlin St 615",Mon-Sat 07.00-19.00,FALSE,,,,TRUE,,Green,-6.287291,53.343402,02/01/2012 22:45:00,NULL
335,602,Anglesea Road,4,105 P&D / DP (Total),North of W'side Ailesbury Drive,03/03/2001,2.40,None Nearby,Mon-Sat 07.00-19.00,FALSE,,,,TRUE,,Red,-6.230835,53.321291,02/01/2012 22:45:00,NULL
336,603,Leeson Park,6,104 P&D / DP (Total),Opposite Church,03/03/2001,2.90,"3 On Northbrook Rd, 4 On Dartmouth Rd",Mon-Fri 08.00-18.30,FALSE,,,,TRUE,,Yellow,-6.252739,53.329727,02/01/2012 22:45:00,NULL
337,604,Northbrook Road,6,120 P&D / DP (Total),At Number 3,03/03/2001,2.90,"Northbrook Rd 418, 653, Leeson Park 603, 4 On Dartmouth Rd",Mon-Fri 08.00-18.30,FALSE,,,,TRUE,,Yellow,-6.253686,53.329242,02/01/2012 22:45:00,NULL
338,605,Dartmouth Road,6,51 P&D / DP (Total),Opposite Dartmouth Square,03/03/2001,2.90,"Dartmouth Road 451 ,450, 227",Mon-Fri 08.00-18.30,FALSE,,,,TRUE,,Yellow,-6.253938,53.330207,02/01/2012 22:45:00,NULL
339,606,Sussex Road,4,9 P&D + 45 DP (Total),At Number 11,03/03/2001,2.90,"Sussex Road 410, 425, Leeson St Upr 225",Mon-Sat 07.00-19.00,FALSE,,,,TRUE,,Yellow,-6.25076,53.330439,02/01/2012 22:45:00,NULL
340,607,Grosvenor Place,6,89 P&D / DP (Total),At Number 13,03/03/2001,1.60,"Grosvenor Place 608, Effra Rd 337, Grosvenor Rd 325, 673, 674",Mon-Fri 08.00-18.30,FALSE,,,,TRUE,,Green,-6.27192,53.320793,02/01/2012 22:45:00,NULL
341,608,Grosvenor Place,6,89 P&D / DP (Total),Opposite Number 31,03/03/2001,1.60,"Grosvenor Place 607, Effra Rd 337, Leinster Rd 609",Mon-Fri 08.00-18.30,FALSE,,,,TRUE,,Green,-6.27293,53.321814,02/01/2012 22:45:00,NULL
342,609,Leinster Road,6,208 P&D / DP (Total),At Number 71,03/03/2001,1.60,"Grosvenor Sq 684, Leinster Rd 411, Grosvenor Place 608",Mon-Fri 08.00-18.30,FALSE,,,,TRUE,,Green,-6.273034,53.322707,02/01/2012 22:45:00,NULL
343,610,Leinster Road,6,208 P&D / DP (Total),At Number 153,03/03/2001,1.60,"Leinster Sq 412, Leinster Rd 411",Mon-Fri 08.00-18.30,FALSE,,,,TRUE,,Green,-6.268364,53.32371,02/01/2012 22:45:00,NULL
344,611,Ross Road,8,29 P&D / DP,At Number 6,03/03/2001,2.90,"Bride Rd 129, Werburgh St 247, Ship St Little 131",Mon-Sat 07.00-19.00,FALSE,,,,TRUE,,Yellow,-6.271361,53.341873,02/01/2012 22:45:00,NULL
345,612,Anna Villa,6,75 P&D / DP (Total),Nrth of W'side Beechwood Avenue,06/03/2001,1.60,"Ranelagh Rd 429 (€2.00), Anna Villa 546, Mountain View Rd 686",Mon-Sun 07.00-24.00,FALSE,,,,TRUE,,Green,-6.250365,53.323242,02/01/2012 22:45:00,NULL
346,613,Peter Row,8,14 P&D / DP,At Light-Stand 2,23/04/2002,2.90,"Peter St 372, Whitefriar Place 479",Mon-Sat 07.00-19.00,FALSE,,,,FALSE,,Yellow,-6.26675,53.339086,02/01/2012 22:45:00,NULL
347,614,Elm Park Terrace,6,8 P&D / DP,Mayfield Road,,1.00,"Rathmore Villas 665, Terenure Rd Nth 351, 799",Mon-Sat 07.00-24.00,FALSE,,,,FALSE,,Orange,-6.283274,53.311101,02/01/2012 22:45:00,NULL
348,615,Echlin Street,8,11 P&D + 20 DP,Opposite Church,06/03/2001,1.60,"James' St 600, 601, Grand Canal Place 8",Mon-Sat 07.00-19.00,FALSE,,,,TRUE,,Green,-6.288463,53.343092,02/01/2012 22:45:00,NULL
349,616,Old Kilmainham,8,18 P&D / DP,At Number 31,06/03/2001,1.00,Mount Brown 617,Mon-Fri 08.00-18.30,FALSE,,,,TRUE,,Orange,-6.304533,53.340801,02/01/2012 22:45:00,NULL
350,617,Mount Brown,8,6 P&D + 33 DP (Total),At No 80,06/03/2001,1.00,Old Kilmainham 616,Mon-Sat 07.00-19.00,FALSE,,,,TRUE,,Orange,-6.302521,53.340799,02/01/2012 22:45:00,NULL
351,618,Mount Brown,8,6 P&D + 33 DP (Total),Between 25 & 26,06/03/2001,1.00,Mount Brown 619,Mon-Sat 07.00-19.00,FALSE,,,,TRUE,,Orange,-6.298682,53.341445,02/01/2012 22:45:00,NULL
352,619,Mount Brown,8,6 P&D + 33 DP (Total),"At Apartments, Opp entrance to Ceannt Fort",06/03/2001,1.00,"Mount Brown  618, James' St 622 (€1.50)",Mon-Sat 07.00-19.00,FALSE,,,,TRUE,,Orange,-6.296098,53.341858,02/01/2012 22:45:00,NULL
353,620,Avondale Road,7,20 P&D,Opposite Number 20,06/03/2001,1.60,"Monck Place 558, North Circular Rd 59",Mon-Sat 07.00-19.00,FALSE,,,,TRUE,,Green,-6.275941,53.359136,02/01/2012 22:45:00,NULL
354,621,Pearse Square,2,28 P&D / DP,Opposite Number 57,,2.40,"Pearse St 544, 839, Macken St 44, 300",Mon-Sat 07.00-19.00,FALSE,,,,FALSE,,Red,-6.241873,53.343008,02/01/2012 22:45:00,NULL
355,622,James' Street,8,22 P&D + 9 DP (Total),At 176 & Opposite entrance to St. James' Hospital,07/03/2001,1.00,Mount Brown 619 (€1.00),Mon-Sat 07.00-19.00,FALSE,,,,TRUE,,Orange,-6.294669,53.342295,02/01/2012 22:45:00,NULL
356,624,Grand Canal Street Upper,4,56 P&D / DP,Opposite Number 26,07/03/2001,2.90,Shelbourne Rd 654,Mon-Fri 08.00-18.30,FALSE,,,,TRUE,,Yellow,-6.235937,53.33773,02/01/2012 22:45:00,NULL
357,626,Grand Canal Quay,2,12 P&D,Opposite Malt House,07/03/2001,2.40,"Clanwilliam Terrace 438, Pearse St 839",Mon-Fri 07.00-19.00,FALSE,,,,TRUE,,Red,-6.239308,53.340799,02/01/2012 22:45:00,NULL
358,628,Barrow Street,4,85 P&D / DP (Total),Opposite Number 16,07/03/2001,2.40,Barrow St 627,Mon-Sat 07.00-24.00,FALSE,,,,TRUE,,Red,-6.236245,53.341483,02/01/2012 22:45:00,NULL
359,632,St. Patrick's Road,9,68 P&D / DP,Under Railway Bridge,08/03/2001,1.60,"St. Anne's Rd Nth 58, St. Alphonsus' Rd 452",Mon-Sun 07.00-24.00,FALSE,,,Disc parking,FALSE,,Green,-6.260695,53.363594,02/01/2012 22:45:00,NULL
360,633,St. Peter's Road (Phibsborough),7,60 P&D / DP,At Light-Stand 5,08/03/2001,1.60,"Cabra Park 670, 671",Mon-Fri 08.00-18.30,FALSE,,,,TRUE,,Green,-6.276764,53.362185,02/01/2012 22:45:00,NULL
361,635,Windmill Lane,2,37 P&D / DP,Junction Of Creighton Street,08/03/2001,2.40,"Creighton St 422, 2 On City Quay, Hanover St East 592",Mon-Sat 07.00-19.00,FALSE,,,,TRUE,,Red,-6.246277,53.34588,02/01/2012 22:45:00,NULL
362,636,Ringsend Road,4,23 P&D / DP,At Number 39,,2.40,"Ringsend Rd 681, Barrow St 628, Hastings St 642",Mon-Fri 8.00-18.30,FALSE,,,,FALSE,,Red,-6.233699,53.34175,02/01/2012 22:45:00,NULL
363,637,South Lotts Road,4,63 P&D / DP (Total),At ESB,12/03/2001,2.40,3 On South Lotts Rd,Mon-Sat 07.00-24.00,FALSE,,,,TRUE,,Red,-6.232524,53.339342,02/01/2012 22:45:00,NULL
364,638,Doris Street,4,39 P&D / DP,Junction Of South Lotts Road,12/03/2001,2.40,"3 On South Lotts Rd, Somerset St 639",Mon-Sat 07.00-24.00,FALSE,,,,TRUE,,Red,-6.23274,53.339975,02/01/2012 22:45:00,NULL
365,639,Somerset Street,4,20 P&D / DP,Opposite Number 1,12/03/2001,2.40,"Doris St 638, 3 On South Lotts Rd",Mon-Sat 07.00-24.00,FALSE,,,,TRUE,,Red,-6.23333,53.339515,02/01/2012 22:45:00,NULL
366,640,Penrose Street,4,48 P&D / DP,Junction Of South Lotts Road,12/03/2001,2.40,"3 On South Lotts Rd, Doris St 638",Mon-Sat 07.00-24.00,FALSE,,,,TRUE,,Red,-6.232661,53.340299,02/01/2012 22:45:00,NULL
367,641,Brunswick Street North,7,24 P&D / DP (Total),Opposite Kebry print,,2.40,Brunswick St N 163,Mon-Sat 07.00-19.00,FALSE,,,,TRUE,,Red,-6.27968,53.350518,02/01/2012 22:45:00,NULL
368,642,Hastings Street,4,41 P&D,At Number 7,12/03/2001,2.40,"3 On South Lotts Rd, South Dock St 35",Mon-Sat 07.00-24.00,FALSE,,,,TRUE,,Red,-6.231763,53.341203,02/01/2012 22:45:00,NULL
369,645,South Circular Road,8,17 P&D / DP,Outside number 448,12/03/2001,1.00,South Circular Rd 168,Mon-Sat 07.00-19.00,FALSE,,,,TRUE,,Orange,-6.293018,53.33475,02/01/2012 22:45:00,NULL
370,646,Grosvenor Road,6,128 P&D / DP (Total),Opposite Number 34,03/04/2001,1.60,"Grosvenor Rd 673, 674, Leicester Ave 738",Mon-Fri 08.00-18.30,FALSE,,,,TRUE,,Green,-6.27063,53.317558,02/01/2012 22:45:00,NULL
371,647,New Bride Street,8,20 P&D / DP (Total),At Number 5,03/04/2001,2.90,"New Bride St 176, Camden Row 177, Long Lane 395, 2 On Kevin St",Mon-Sun 07.00-24.00,FALSE,,,,TRUE,,Yellow,-6.269171,53.337138,02/01/2012 22:45:00,NULL
372,648,Ash Street,8,20 P&D / DP,Between Francis Street & Meath Street,03/04/2001,2.40,"Catherine St 548, Carman's Hall 690",Mon-Fri 08.00-18.30,FALSE,,,,TRUE,,Red,-6.277007,53.340446,02/01/2012 22:45:00,NULL
373,649,Gray Street,8,34 P&D / DP,At Reginald Street Grotto,03/04/2001,2.40,"The Coombe 48, Meath Place 492",Mon-Sun 07.00-24.00,FALSE,,,,TRUE,,Red,-6.279256,53.340232,02/01/2012 22:45:00,NULL
374,650,Mayfield Road,8,17 P&D / DP,At South Circular Road,03/04/2001,1.00,"South Circular Rd 586, Mountshannon Rd 651",Mon-Sat 07.00-19.00,FALSE,,,,TRUE,,Orange,-6.301839,53.338695,02/01/2012 22:45:00,NULL
375,651,Mountshannon Road,8,68 P&D / DP,"Opposite number 5, corner of SCR",03/04/2001,1.00,"Mayfieled Rd 650, South Cicrular Rd 586, Brookfield Rd 667",Mon-Sat 07.00-19.00,FALSE,,,,TRUE,,Orange,-6.299699,53.338153,02/01/2012 22:45:00,NULL
376,652,Emmet Road,8,155 P&D / DP (Total),At One Euro Plaza & Junction Spa Road,04/04/2001,1.00,"Emmet Rd 244, Tyrconnel Rd 732",Mon-Sat 07.00-19.00,FALSE,,,,TRUE,,Orange,-6.319589,53.339378,02/01/2012 22:45:00,NULL
377,653,Northbrook Road,6,120 P&D / DP (Total),Opposite Number 17,04/04/2001,2.90,"Northbrook Rd 418, 604, 4 On Dartmouth Rd",Mon-Fri 08.00-18.30,FALSE,,,,TRUE,,Yellow,-6.258237,53.328369,02/01/2012 22:45:00,NULL
378,654,Shelbourne Road,4,31 P&D + 34 DP (Total),At Number 8,04/04/2001,2.90,"Shelbourne Rd 289, Haddington Rd 72",Mon-Sun 07.00-24.00,FALSE,,,,TRUE,,Yellow,-6.233935,53.336807,02/01/2012 22:45:00,NULL
379,655,Merrion Road,4,11 P&D / DP,At Number 180,05/04/2001,1.60,Merrion View Ave 130,Mon-Sat 07.00-19.00,FALSE,,,,TRUE,,Green,-6.21188,53.318607,02/01/2012 22:45:00,NULL
380,656,Lansdowne Road,4,49 P&D / DP (Total),Outside Number 53,05/04/2006,2.40,"Lansdowne Rd 223 (€2.50), Shelbourne Rd 658 (€2.50)",Mon-Fri 08.00-18.30,FALSE,,,,TRUE,,Red,-6.230706,53.333896,02/01/2012 22:45:00,NULL
381,658,Shelbourne Road,4,31 P&D + 34 DP (Total),At Number 234,05/04/2001,2.90,"Shelbourne Rd 290, 301, Lansdowne Rd 223, 657",Mon-Sat 08.00-16.00,TRUE,after 16.00,,,TRUE,,Yellow,-6.231537,53.333081,02/01/2012 22:45:00,NULL
382,659,Sydenham Road,4,25 P&D / DP,Opposite Merrion Hall,05/04/2001,2.40,Serpentine Ave 391,Mon-Fri 07.00-19.00,FALSE,,,,TRUE,,Red,-6.225221,53.3277,02/01/2012 22:45:00,NULL
383,660,Richmond Avenue,6,39 P&D / DP,At Number 2,05/04/2001,1.60,None Nearby,Mon-Fri 08.00-18.30,FALSE,,,Disc parking,FALSE,,Green,-6.243382,53.36345,02/01/2012 22:45:00,NULL
384,661,Prospect Avenue,9,27 P&D / DP,Opposite Number 17,06/04/2001,1.60,"Lindsay Rd 7, Iona Rd 158",Mon-Sun 07.00-24.00,FALSE,,,Disc Parking,TRUE,,Green,-6.271629,53.366568,02/01/2012 22:45:00,NULL
385,662,Leinster Street North,7,72 P&D / DP,At ATD Security,06/04/2001,1.60,"Royse Rd 37, Munster St 519",Mon-Fri 08.00-18.30,FALSE,,,,TRUE,,Green,-6.272532,53.363896,02/01/2012 22:45:00,NULL
386,664,Shrewsbury Road,4,133 P&D / DP (Total),At Number 18,,1.60,None Nearby,Mon-Fri 07.00-19.00,FALSE,,,,TRUE,,Green,-6.223241,53.32216,02/01/2012 22:45:00,NULL
387,665,Rathmore Villas,6,17 P&D / DP,Terenure,17/04/2001,1.00,"Elm Park Tce 614, Terenure Rd Nth 7426, 799",Mon-Sat 07.00-19.00,FALSE,,,,TRUE,,Orange,-6.282644,53.311228,02/01/2012 22:45:00,NULL
388,667,Brookfield Road,8,30 P&D / DP,At number 41,16/04/2001,1.00,"South Circular Rd 586, Mayfield Rd 650, Mountshannon Rd 651",Mon-Sat 07.00-19.00,FALSE,,,,TRUE,,Orange,-6.300863,53.339463,02/01/2012 22:45:00,NULL
389,670,Cabra Park,7,127 P&D / DP (Total),No 47 St Peters Road,20/04/2001,1.60,"Cabra Park 671, St Peter's Rd 633",Mon-Sat 07.00-19.00,FALSE,,,,TRUE,,Green,-6.279303,53.362071,02/01/2012 22:45:00,NULL
390,671,Cabra Park,7,127 P&D / DP (Total),No 114 St. Peter's Road,20/04/2001,1.60,"Cabra Park 670, St Peter's Rd 633",Mon-Sat 07.00-19.00,FALSE,,,,TRUE,,Green,-6.278111,53.361363,02/01/2012 22:45:00,NULL
391,672,Moyne Road,6,154 P&D / DP (Total),Ranelagh,23/04/2001,1.60,"Moyne Rd 470, Ormond Rd Sth 164, Windsor Rd 698",Mon-Sat 07.00-19.00,FALSE,,,Disc parking,FALSE,,Green,-6.255021,53.319024,02/01/2012 22:45:00,NULL
392,673,Grosvenor Road,6,128 P&D / DP (Total),At Number 23,23/04/2001,1.60,"Grosvenor Rd 646, 674",Mon-Fri 08.00-18.30,FALSE,,,,TRUE,,Green,-6.271848,53.319034,02/01/2012 22:45:00,NULL
393,674,Grosvenor Road,6,128 P&D / DP (Total),At the school,23/04/2001,1.60,"Grosvenor Rd 325, 673, Grosvenor Place 607",Mon-Fri 08.00-18.30,FALSE,,,,TRUE,,Green,-6.271467,53.319351,02/01/2012 22:45:00,NULL
394,675,Vernon Avenue,3,34 P&D + 20 DP,At Number 9,23/04/2001,1.00,Clontarf Road 778,Mon-Sat 07.00-19.00,FALSE,,,,TRUE,,Orange,-6.195895,53.359603,02/01/2012 22:45:00,NULL
395,676,James Joyce Street,1,8 P&D,At Bank Of Ireland,,2.40,"Talbot St 309, 498",Mon-Sat 07.00-19.00,FALSE,,,,FALSE,,Red,-6.253365,53.351335,02/01/2012 22:45:00,NULL
396,677,Mulberry Lane (Donnybrook),4,5 P&D / DP,Behind garage at Victoria Avenue,30/04/2001,2.40,"Pembroke Cottages 486, 4 On Donnybrook Rd",Mon-Fri 08.00-18.30,FALSE,,,,FALSE,,Red,-6.235193,53.323556,02/01/2012 22:45:00,NULL
397,678,Burlington Road,4,144 P&D / DP (Total),North of Westside Private Road,30/04/2001,2.90,"5 On Burlington Rd, Waterloo Rd 346",Mon-Fri 08.00-18.30,FALSE,,,Disc parking (8.30-18.00),FALSE,,Yellow,-6.244408,53.33142,02/01/2012 22:45:00,NULL
398,680,Lansdowne Park,4,41 P&D / DP,At Number 45,30/04/2001,2.90,None Nearby,Mon-Fri 08.00-18.30,FALSE,,,Disc parking (8.30-18.00),FALSE,,Yellow,-6.234668,53.333738,02/01/2012 22:45:00,NULL
399,681,Ringsend road,4,23 P&D / DP,At Bus Station,05/05/2001,2.40,"Ringsend Rd 636, Barrow St 628, Hastings St 642",Mon-Sat 07.00-19.00,FALSE,,,Disc parking Mon-Fri,FALSE,,Red,-6.233456,53.341856,02/01/2012 22:45:00,NULL
400,682,Stirrup Lane,7,16 P&D / DP,Church Street To Beresford Street,,2.90,Beresford St 261,Mon-Fri 08.00-18.30,FALSE,,,,FALSE,,Red,-6.273993,53.3499,02/01/2012 22:45:00,NULL
401,684,Grosvenor Square,6,164 P&D / DP (Total),Opposite Number 48,16/05/2001,1.60,"Grosvenor Sq 685, Leinster Rd 411, 609",Mon-Fri 08.00-13.00,FALSE,,,Disc parking Mon-Fri,FALSE,,Green,-6.272435,53.323093,02/01/2012 22:45:00,NULL
402,685,Grosvenor Square,6,164 P&D / DP (Total),Outside no.87,16/05/2001,1.60,"Grosvenor Sq 684, Leinster Rd 411, 609",Mon-Sun 07.00-24.00,FALSE,,,Disc parking Mon-Fri,FALSE,,Green,-6.273607,53.32364,02/01/2012 22:45:00,NULL
403,687,Mountain View Road,6,95 P&D / DP (Total),At Side of Community Centre,16/05/2001,1.60,"Albany Rd 142, Edenvale Rd 103, Mountain View Rd 686",Mon-Sat 07.00-19.00,FALSE,,,Disc parking Mon-Fri,FALSE,,Green,-6.251526,53.318798,02/01/2012 22:45:00,NULL
404,688,Ferrard Road,6,16 P&D / DP,Off Rathgar Rd,16/05/2001,1.00,"Healthfield Rd 749, Brighton Rd 735",Mon-Sat 07.00-19.00,FALSE,,,Disc parking Mon-Fri,FALSE,,Orange,-6.279697,53.311079,02/01/2012 22:45:00,NULL
405,690,Carman's Hall,8,14 P&D + 14 DP (Total),Off Meath St,17/05/2001,2.40,"Ash St 640, Catherine St 648",Mon-Sat 07.00-19.00,FALSE,,,Disc parking Mon-Sat,FALSE,,Red,-6.276705,53.34066,02/01/2012 22:45:00,NULL
406,693,Stamer Street,8,38 P&D / DP (Total),Junction Of Harrington Street,24/05/2001,2.40,"Stamer St 172, Synge St 691",Mon-Sat 07.00-19.00,FALSE,,,Disc parking Mon-Fri,FALSE,,Red,-6.268209,53.332341,02/01/2012 22:45:00,NULL
407,694,Chester Road,6,27 P&D / DP,At Mount Pleasant Avenue,,2.40,Mountpleasant Sq 432,Mon-Sat 07.00-19.00,FALSE,,,,FALSE,,Red,-6.257832,53.325152,02/01/2012 22:45:00,NULL
408,698,Windsor Road,6,97 P&D / DP,Harolds Cross,11/06/2001,1.60,"Palmerston Rd 736, Moyne Rd 672",Mon-Sat 07.00-19.00,FALSE,,,,FALSE,,Green,-6.255082,53.317838,02/01/2012 22:45:00,NULL
409,699,John Dillon Street,8,66 P&D / DP (Total),Opp no. 50,11/06/2001,2.90,"John Dillon St 327, Dillon Place Sth 132, 6 On Francis St",Mon-Sun 07.00-24.00,FALSE,,,,FALSE,,Yellow,-6.273408,53.341485,02/01/2012 22:45:00,NULL
410,700,New Row South,8,29 P&D / DP,Outside no.11,11/06/2001,2.40,6 On Francis St,Mon-Sun 07.00-24.00,FALSE,,,,FALSE,,Red,-6.273785,53.338393,02/01/2012 22:45:00,NULL
411,701,Clanbrassil Street Upper,8,14 P&D / DP,Outside no 12,12/06/2001,2.40,"Windsor Tce 698, Clanbrassil St Lwr 695, 695",Mon-Sat 07.00-19.00,FALSE,,,,FALSE,,Red,-6.275319,53.331396,02/01/2012 22:45:00,NULL
412,704,Swords Road,9,5 P&D,At Iveragh Road Junction,19/06/2001,1.00,None Nearby,Mon-Sat 07.00-19.00,FALSE,,,,FALSE,,Orange,-6.245639,53.3808,02/01/2012 22:45:00,NULL
413,706,Raheny Village,5,19 P&D + 16 DP (Total),At SuperValu,19/06/2001,0.60,"Raheny Village 493, 718",Mon-Sat 07.00-19.00,FALSE,,,,FALSE,,Blue,-6.178009,53.380083,02/01/2012 22:45:00,NULL
414,707,Auburn Street,7,30 P&D / DP,At No. 13,19/06/2001,2.40,None Nearby,Mon-Fri 08.00-18.30,FALSE,,,,TRUE,,Red,-6.271634,53.356387,02/01/2012 22:45:00,NULL
415,709,Bloomfield Avenue (Portobello),8,85 P&D / DP,Opposite Locks restaurant,25/06/2001,2.40,Winsdor Tce 779,Mon-Sun 07.00-24.00,FALSE,,,,FALSE,,Red,-6.271515,53.329917,02/01/2012 22:45:00,NULL
416,710,Anne Street North,7,14 P&D / DP,Off North King Street,25/06/2001,2.90,"Little Britain St 232, Beresford St 261",Mon-Fri 08.00-18.30,FALSE,,,,FALSE,,Yellow,-6.272357,53.34921,02/01/2012 22:45:00,NULL
417,712,St. Assam's Road West,5,8 P&D,Opposite BOI Car Park,25/06/2001,0.60,Raheny Village 718,Mon-Fri 08.00-19.00,FALSE,,,,FALSE,,Blue,-6.172027,53.380791,02/01/2012 22:45:00,NULL
418,713,Garville Mews,6,6 P&D,Junction Rathgar Road,06/07/2001,1.00,"Garville Ave 748, Garville Rd 39, Wesley Rd 326",Mon-Fri 08.00-18.30,FALSE,,,,FALSE,,Orange,-6.272294,53.314862,02/01/2012 22:45:00,NULL
419,714,Blackpitts,8,25 P&D / DP,Junction of Old Mill Court,06/07/2001,2.40,Clanbrassil Tce 773,Mon-Fri 08.00-18.30,FALSE,,,,FALSE,,Red,-6.275121,53.335913,02/01/2012 22:45:00,NULL
420,715,School Street,8,16 P&D,Behind Guinness at flats/at school,17/07/2001,2.40,"Sugar House Lane 716, Crane St 717, Earl St Sth 136",Mon-Sat 07.00-19.00,FALSE,,,,FALSE,,Red,-6.283149,53.341508,02/01/2012 22:45:00,NULL
421,716,Sugar House Lane,8,5 P&D,Side of guinness at car pk,17/07/2001,2.40,"Crane St 717, School St 715",Mon-Sat 07.00-19.00,FALSE,,,,FALSE,,Red,-6.283811,53.341802,02/01/2012 22:45:00,NULL
422,717,Crane Street,8,16 P&D,At Rainsford Street junction,17/07/2001,2.40,"Sugar House Lane 716, School St 715",Mon-Sat 07.00-19.00,FALSE,,,,TRUE,,Red,-6.283883,53.34241,02/01/2012 22:45:00,NULL
423,718,Raheny Village,5,19 P&D + 16 DP (Total),Opposite Ladbrokes & 'The Inn',03/07/2001,0.60,"Raheny Village 493, 706",Mon-Sat 07.00-19.00,FALSE,,,,FALSE,,Blue,-6.174311,53.380107,02/01/2012 22:45:00,NULL
424,719,Oliver Bond Street,8,76 P&D / DP (Total),Opposite Car Park,08/08/2001,2.40,Bridgefoot St 801,Mon-Fri 08.00-18.30,FALSE,,,,FALSE,,Red,-6.280456,53.343914,02/01/2012 22:45:00,NULL
425,722,Clyde Road,4,22 P&D / DP (Total),At Church,,2.90,"3 On Clyde Rd , Elgin Rd 249",Mon-Fri 10.00-18.00,FALSE,,,,FALSE,,Yellow,-6.235943,53.329665,02/01/2012 22:45:00,NULL
426,723,Drumcondra Road Upper,9,10 P&D (Total),"At Number 108, Hession Hairdresser's",,1.00,Ormond Rd 159,Mon-Sat 07.00-19.00,FALSE,,,,FALSE,,Orange,-6.252663,53.372222,02/01/2012 22:45:00,NULL
427,725,Gulistan Terrace,6,17 P&D / DP,Opposite No. 23,,2.40,Mountpleasant Avenue Upper 882,Mon-Sun 07.00-24.00,FALSE,,,,FALSE,,Red,-6.260829,53.324921,02/01/2012 22:45:00,NULL
428,726,Harold's Cross Road,6,58 P&D / DP (Total),At Number 74,28/08/2001,1.60,Harold's Cross Rd 727,Mon-Sat 07.00-24.00,FALSE,,,,FALSE,,Green,-6.278159,53.326535,02/01/2012 22:45:00,NULL
429,727,Harold's Cross Road,6,58 P&D / DP (Total),At the fork in the Road,28/09/2001,1.60,Harold's Cross Rd 726,Mon-Sat 07.00-24.00,FALSE,,,,FALSE,,Green,-6.277891,53.326371,02/01/2012 22:45:00,NULL
430,728,Harold's Cross Road,6,58 P&D / DP (Total),At No. 177,06/09/2001,1.60,"Mount Argus 567, Leinster Rd 575",Mon-Sat 07.00-24.00,FALSE,,,,FALSE,,Green,-6.278818,53.323311,02/01/2012 22:45:00,NULL
431,729,Harold's Cross Road,6,58 P&D / DP (Total),Across from Century House,28/08/2001,1.60,Tivoli Ave 793,Mon-Sat 07.00-19.00,FALSE,,,,FALSE,,Green,-6.27888,53.319756,02/01/2012 22:45:00,NULL
432,730,Sundrive Road,6,23 P&D,Kimmage opposite Superquinn,06/09/2001,1.00,None Nearby,Mon-Sat 07.00-19.00,FALSE,,,,FALSE,,Orange,-6.291361,53.320071,02/01/2012 22:45:00,NULL
433,731,Conyngham Road,8,46 P&D + 12 DP (Total),At Riverpark Apartments,06/09/2001,1.00,Conyngham Rd 569,Mon-Sat 08.00-19.00,FALSE,,,,FALSE,,Orange,-6.302962,53.34821,02/01/2012 22:45:00,NULL
434,732,Tyrconnell Road,8,18 P&D / DP,At Balkanic Food & Opposite X-Tra Vision,06/09/2001,0.60,"Tyrconnell St 28, Emmett Rd 652",Mon-Sat 07.00-19.00,FALSE,,,,TRUE,,Blue,-6.321169,53.339275,02/01/2012 22:45:00,NULL
435,733,Beechlawn Way,6,10 P&D / DP,South of Rathfarnham Road,01/10/2001,1.00,"Rathfarnam Road 591, Fergus Rd 125",Mon-Sat 07.00-19.00,FALSE,,,,FALSE,,Orange,-6.283701,53.308957,02/01/2012 22:45:00,NULL
436,734,Brighton Road,6,133 P&D / DP (Total),South of WestSide Brighton Square,03/10/2001,1.00,"Brighton Sq 456, Garville Ave Upr 63",Mon-Sat 07.00-24.00,FALSE,,,,FALSE,,Orange,-6.279019,53.314507,02/01/2012 22:45:00,NULL
437,735,Brighton Road,6,133 P&D / DP (Total),North of WestSide Terenure Road East,03/10/2001,1.00,"Tower Ave 813, Ferrard Rd 688, Terenure Rd E 167",Mon-Sat 07.00-24.00,FALSE,,,,FALSE,,Orange,-6.277979,53.31156,02/01/2012 22:45:00,NULL
438,736,Palmerston Road,6,112 P&D / DP (Total),House Number 55,03/10/2001,1.60,"Palmerston Rd 565, Ormond Rd S 164",Mon-Fri 07.00-16.00,FALSE,,,,FALSE,,Green,-6.258798,53.317398,02/01/2012 22:45:00,NULL
439,737,The Crescent (Marino),3,31 P&D / DP,Opposite No. 11,03/10/2001,1.00,"Malahide Rd 380, St. Aidan's Park Rd 379",Mon-Sat 07.00-24.00,FALSE,,,,FALSE,,Orange,-6.228247,53.365057,02/01/2012 22:45:00,NULL
440,738,Leicester Avenue,6,78 P&D / DP,Opposite the Church,08/10/2001,1.60,Frankfort Ave 161,Mon-Sat 07.00-19.00,FALSE,,,,FALSE,,Green,-6.270725,53.317335,02/01/2012 22:45:00,NULL
441,741,Maxwell Road,6,92 P&D / DP,Opposite Number 26,,1.60,"Rathmines Rd Upr 787, 788",Mon-Fri 08.00-18.30,TRUE,Before 10.00,,,FALSE,,Green,-6.266037,53.31774,02/01/2012 22:45:00,NULL
442,742,York Road,6,105 P&D / DP,At Number 51,,1.60,Rathmines Rd Upr 53,Mon-Sat 07.00-24.00,TRUE,Before 10.00,,,FALSE,,Green,-6.265153,53.318821,02/01/2012 22:45:00,NULL
443,747,Garville Avenue,6,40 P&D / DP (Total),No 35,,1.00,"Garville Ave 748, Garville Ave Upr 63",Mon-Fri 07.00-19.00,FALSE,,,,FALSE,,Orange,-6.275591,53.315528,02/01/2012 22:45:00,NULL
444,748,Garville Avenue,6,40 P&D / DP (Total),At Flats,,1.00,"Garville Ave 747, Garville Rd 39",Mon-Fri 07.00-19.00,FALSE,,,,FALSE,,Orange,-6.271826,53.315827,02/01/2012 22:45:00,NULL
445,749,Healthfield Road,6,60 P&D / DP,At Number 72,,1.00,"Greenmount Rd 823, Ferrard Rd 688",Mon-Fri 08.00-18.30,FALSE,,,,FALSE,,Orange,-6.280652,53.310781,02/01/2012 22:45:00,NULL
446,750,Leinster Road West,6,90 P&D / DP (Total),Opposite Number 1,,1.60,"Leinster Rd 575, Effra Rd 337, Leinster Rd W 542",Mon-Fri 08.00-18.30,FALSE,,,,FALSE,,Green,-6.275822,53.321436,02/01/2012 22:45:00,NULL
447,751,Smithfield North (North King St End),7,45 P&D / DP (Total),Opposite The Cobblestone Pub,,2.40,"Brunswick St Nth 163, 641, Smithfield 511, 744, 745, New Church St 582",Mon-Sat 07.00-19.00,FALSE,,,,FALSE,,Red,-6.277793,53.3497,02/01/2012 22:45:00,NULL
448,754,Inchicore Road,8,33 P&D + 15 DP (Total),"At New Apartments, opposite Kilmainham Courtrooms",,1.00,Kilmainham Lane 811,Mon-Sat 07.00-19.00,FALSE,,,,TRUE,,Orange,-6.30861,53.342116,02/01/2012 22:45:00,NULL
449,755,Belmont Gardens,4,35 P&D / DP,South of E'side Belmont Avenue,,2.40,None Nearby,Mon-Sat 07.00-24.00,FALSE,,,,FALSE,,Red,-6.242044,53.320049,02/01/2012 22:45:00,NULL
450,756,Ballyfermot Road,10,83 P&D (Total),At Bank Of Ireland / Opposite Number 301,,0.60,"Ballyfermot Rd 455, 755, Le Fanu Rd 774",Mon-Sat 07.00-19.00,FALSE,,,,FALSE,,Blue,-6.354247,53.34235,02/01/2012 22:45:00,NULL
451,757,Foley Street,1,24 P&D,At Five-Lamps,,2.40,6 On Amiens St,Mon-Sat 07.00-19.00,FALSE,,,,FALSE,,Red,-6.24921,53.352793,02/01/2012 22:45:00,NULL
452,758,Railway Street,1,40 P&D / DP,At Gardiner Street Lower Junction,,2.40,"Gardiner St Lwr 119, 121",Mon-Sat 07.00-19.00,FALSE,,,,FALSE,,Red,-6.255323,53.352366,02/01/2012 22:45:00,NULL
453,759,St. Catherine's Avenue,8,28 P&D / DP,"At Donore Avenue, Northside",,1.60,"St. Anne's Rd South 568, Dufferin Ave 589",Mon-Sat 07.00-24.00,FALSE,,,,FALSE,,Green,-6.283217,53.332462,02/01/2012 22:45:00,NULL
454,760,Ailesbury Drive,4,40 P&D / DP,Near Anglesea Road,,1.60,"Anglesea Rd 602 (€2.00), Ailesbury Grove 795",Mon-Fri 08.00-18.30,FALSE,,,,FALSE,,Green,-6.230644,53.320956,02/01/2012 22:45:00,NULL
455,763,Island Street,8,32 P&D,Northside At Bridgefoot Street,,2.40,"Bridgefoot St 801, Usher's Quay 570, Oliver Bond St 719",Mon-Sat 07.00-19.00,FALSE,,,,TRUE,,Red,-6.281162,53.345471,02/01/2012 22:45:00,NULL
456,765,Ballsbridge Terrace,4,9 P&D / DP,At Number 33,,2.40,"Herbert Park 30, Merrion Rd 370",Mon-Sun 07.00-24.00,FALSE,,,,FALSE,,Red,-6.232109,53.328642,02/01/2012 22:45:00,NULL
457,766,Berkeley Street,7,44 P&D / DP (Total),"At 'Selections' Newsagents, Top of Eccles Street",,2.40,"Goldsmith St 221, O'Connell Ave 220, 3 On Eccles St",Mon-Sat 07.00-24.00,FALSE,,,,FALSE,,Red,-6.269874,53.359452,02/01/2012 22:45:00,NULL
458,767,Oaklands Park,4,82 P&D / DP,At Number 64 / 65,,1.00,"Serpentine Rd 782, Claremont Rd 816",Mon-Fri 08.00-18.30,FALSE,,,,FALSE,,Orange,-6.222494,53.331006,02/01/2012 22:45:00,NULL
459,768,Mount Temple Road,7,40 P&D,Opposite Number 29,,1.60,"Manor Place 870, Sitric Rd 877, 3 On Manor St",Mon-Fri 07.00-19.00,FALSE,,,,FALSE,,Green,-6.284895,53.351618,02/01/2012 22:45:00,NULL
460,769,Ailesbury Road,4,169 P&D / DP (Total),At Number 40A,,1.60,Ailesbury Grove 795,Mon-Fri 07.00-19.00,FALSE,,,,FALSE,,Green,-6.222902,53.32001,02/01/2012 22:45:00,NULL
461,770,New Wapping Street,1,16 P&D / DP,At Number 2,,2.40,None Nearby,Mon-Fri 07.00-19.00,FALSE,,,,FALSE,,Red,-6.235135,53.349015,02/01/2012 22:45:00,NULL
462,771,Sandymount Avenue,4,43 P&D / DP (Total),Opposite Embassy Court / Junction Of Spafield Terrace,,1.60,None Nearby,Mon-Fri 08.00-18.30,FALSE,,,,FALSE,,Green,-6.223206,53.326874,02/01/2012 22:45:00,NULL
463,772,Observatory Lane,6,8 P&D,At Bike Shop,,2.40,None Nearby,Mon-Sat 07.00-19.00,FALSE,,,,FALSE,,Red,-6.26481,53.325653,02/01/2012 22:45:00,NULL
464,773,Clanbrassil Terrace,8,7 P&D / DP,Junction Of Blackpitts,,1.60,"Blackpitts 714, Raymond St 31",Mon-Sat 07.00-24.00,FALSE,,,,FALSE,,Green,-6.274825,53.335432,02/01/2012 22:45:00,NULL
465,774,Le Fanu Road,10,32 P&D,At William Hill's / Opposite Number 212,,0.60,"Ballyfermot Rd 756, 775",Mon-Sat 07.00-19.00,FALSE,,,,FALSE,,Blue,-6.356628,53.341727,02/01/2012 22:45:00,NULL
466,775,Ballyfermot Road,10,83 P&D (Total),At Sofiane's Pizza House (Number 353),,0.60,"Le Fanu Rd 774, Ballyfermot Rd 756",Mon-Sat 07.00-19.00,FALSE,,,,FALSE,,Blue,-6.357803,53.342417,02/01/2012 22:45:00,NULL
467,777,Clontarf Road,3,29 P&D / DP (Total),At Number 162,,1.00,None Nearby,Mon-Sat 07.00-19.00,FALSE,,,,FALSE,,Orange,-6.20104,53.359962,02/01/2012 22:45:00,NULL
468,778,Clontarf Road,3,29 P&D / DP (Total),At Number 201,,1.00,Vernon Avenue 675,Mon-Sat 07.00-19.00,FALSE,,,,FALSE,,Orange,-6.195456,53.358781,02/01/2012 22:45:00,NULL
469,779,Windsor Terrace,8,33 P&D / DP,At Number 31,,2.40,"Clanbrassil St 701, Bloomfield Ave 709",Mon-Fri 08.00-18.30,FALSE,,,,FALSE,,Red,-6.275228,53.329854,02/01/2012 22:45:00,NULL
470,780,Hibernian Avenue,3,14 P&D / DP,East Wall,,1.60,"North Strand Rd 367, 510",Mon-Sat 07.00-19.00,FALSE,,,,TRUE,,Green,-6.243329,53.356422,02/01/2012 22:45:00,NULL
471,781,Nutley Road,4,48 P&D / DP,At Number 20,,1.60,"Nutley Lane 475, Nutley Park 794",Mon-Sat 07.00-19.00,FALSE,,,,FALSE,,Green,-6.219963,53.315867,02/01/2012 22:45:00,NULL
472,782,Serpentine Road,4,23 P&D / DP,At AIB,,1.00,"Claremont Rd 816, Oaklands Park 767",Mon-Fri 07.00-19.00,FALSE,,,,FALSE,,Orange,-6.222564,53.33202,02/01/2012 22:45:00,NULL
473,785,Luke Street,2,9 P&D,At Light-Stand 68,,2.90,"George's Quay 122, 123",Mon-Sat 07.00-19.00,FALSE,,,,FALSE,,Yellow,-6.25383,53.347274,02/01/2012 22:45:00,NULL
474,786,Ailesbury Road,4,169 P&D / DP (Total),At Merrion Court,,1.60,"Ailesbury Rd 18, Ailesbury Park 867, Merlyn Park 828, Merrion View Ave 130",Mon-Fri 07.00-19.00,FALSE,,,,FALSE,,Green,-6.214162,53.32061,02/01/2012 22:45:00,NULL
475,787,Rathmines Road Upper,6,43 P&D / DP (Total),At Park,,1.60,"Rathmines Rd Upr 788, Maxwell Rd 741",Mon-Sat 07.00-19.00,FALSE,,,,FALSE,,Green,-6.264902,53.31725,02/01/2012 22:45:00,NULL
476,788,Rathmines Road Upper,6,43 P&D / DP (Total),At Number 135,,1.60,"Rathmines Rd Upr 787, Vernon Grove 822",Mon-Sat 07.00-19.00,FALSE,,,,FALSE,,Green,-6.265323,53.316455,02/01/2012 22:45:00,NULL
477,789,Mayfield Road East (Terenure),8,12 P&D / DP,Side of #18 Terenure Park,,1.00,Eaton Square 891,Mon-Sat 07.00-24.00,FALSE,,,,FALSE,,Orange,-6.285217,53.311427,02/01/2012 22:45:00,NULL
478,790,Cork Street,8,76 P&D / DP (Total),Opposite Coombe Hospital,,1.60,Cork St 791,Mon-Sat 07.00-19.00,FALSE,,,,FALSE,,Green,-6.289849,53.335113,02/01/2012 22:45:00,NULL
479,791,Cork Street,8,76 P&D / DP (Total),At Morrisey's Pub,,1.60,Cork St 790,Mon-Sat 07.00-19.00,FALSE,,,,FALSE,,Green,-6.287537,53.336874,02/01/2012 22:45:00,NULL
480,793,Tivoli Avenue,6,8 P&D / DP,At Number 1,,1.60,"Harolds Cross Rd 729, Leinster Rd 575",Mon-Sat 07.00-24.00,FALSE,,,,FALSE,,Green,-6.279431,53.321028,02/01/2012 22:45:00,NULL
481,794,Nutley Park,4,84 P&D / DP,Opposite Number 38,,1.60,"Nutley Lane 475, Nutley Rd 781",Mon-Sat 07.00-19.00,FALSE,,,,FALSE,,Green,-6.221271,53.314234,02/01/2012 22:45:00,NULL
482,795,Ailesbury Grove,4,25 P&D / DP,At Number 2,15/03/2004,1.60,"Ailesbury Rd 15, 769, Ailesbury Drive 760",Mon-Fri 07.00-19.00,FALSE,,,,FALSE,,Green,-6.226858,53.31987,02/01/2012 22:45:00,NULL
483,796,Temple Street West,8,9  P&D,Junction with Parkgate Street,22/04/2008,1.00,Parkgate St 113,Mon-Sat 07.00-19.00,FALSE,,,,TRUE,,Orange,-6.28989,53.348014,02/01/2012 22:45:00,NULL
484,797,Mountpleasant Avenue Lower,6,43 P&D / DP (Total),At Number 25,15/03/2004,2.40,"Mountpleasant Ave 388, Richmond Hill 133",Mon-Sun 07.00-24.00,FALSE,,,,FALSE,,Red,-6.261861,53.328057,02/01/2012 22:45:00,NULL
485,798,Ranelagh Avenue,6,16 P&D / DP,At Number 8,15/03/2004,2.40,Ranelagh Rd 431,Mon-Sun 07.00-24.00,FALSE,,,,FALSE,,Red,-6.254809,53.325499,02/01/2012 22:45:00,NULL
486,799,Terenure Road North,6,7 P&D (Total),Outside Paddy Powers bookies,,1.00,"Elm Park Tce 614, Rathmore Villas 665, Rathfarnham Rd 591",Mon-Sat 07.00-19.00,FALSE,,,,FALSE,,Orange,-6.283328,53.310571,02/01/2012 22:45:00,NULL
487,800,Bloomfield Avenue (Donnybrook),4,30 P&D / DP,At Westfield,,2.40,"Morehampton Rd 401, 526",Mon-Fri 08.00-18.30,FALSE,,,,FALSE,,Red,-6.243534,53.326734,02/01/2012 22:45:00,NULL
488,801,Bridgefoot Street,8,29 P&D / DP (Total),Junction Of Thomas Street,,2.40,"Oliver Bond St 719, Bridgefoot St 864, Island St 763, Thomas St 598, 599",Mon-Sat 07.00-19.00,FALSE,,,,FALSE,,Red,-6.281319,53.343742,02/01/2012 22:45:00,NULL
489,802,Bond Street,8,12 P&D / DP,Junction Of Robert Street South,,1.60,Grand Canal Place 8,Mon-Sat 07.00-19.00,FALSE,,,,TRUE,,Green,-6.28644,53.340803,02/01/2012 22:45:00,NULL
490,805,Fitzwilliam Street (Ringsend),4,6 P&D / DP,Behind Library,,0.60,Thorncastle St 806,Mon-Sat 07.00-19.00,FALSE,,,,FALSE,,Blue,-6.226569,53.341338,02/01/2012 22:45:00,NULL
491,806,Thorncastle Street,4,30 P&D / DP,Outside Shops,,1.00,Fitzwilliam St 805,Mon-Sat 07.00-19.00,FALSE,,,,FALSE,,Orange,-6.227714,53.34235,02/01/2012 22:45:00,NULL
492,808,Cork Street,8,76 P&D / DP (Total),Opposite Donnelly Centre,,1.60,None Nearby,Mon-Sat 07.00-19.00,FALSE,,,,FALSE,,Green,-6.281017,53.338383,02/01/2012 22:45:00,NULL
493,809,Blackhall Place,7,5 P&D / DP (Total),At Number 28,,2.40,Blackhall Place 746,Mon-Sat 07.00-19.00,FALSE,,,,FALSE,,Red,-6.281749,53.34925,02/01/2012 22:45:00,NULL
494,810,Kilmore Road,5,14 P&D / DP,At Number 16,,0.60,None Nearby,Mon-Sat 07.00-19.00,FALSE,,,,FALSE,,Blue,-6.211212,53.380684,02/01/2012 22:45:00,NULL
495,811,Kilmainham Lane,8,5 P&D / DP,Between 4 & 5,,1.00,Inchicore Rd 754,Mon-Fri 07.00-19.00,FALSE,,,,TRUE,,Orange,-6.306987,53.341779,02/01/2012 22:45:00,NULL
496,812,Cowper Road,6,46 P&D / DP,At Number 61,,1.00,None Nearby,Mon-Fri 07.00-19.00,FALSE,,,,FALSE,,Orange,-6.262057,53.315729,02/01/2012 22:45:00,NULL
497,813,Tower Avenue,6,13 P&D / DP,At Number 13,,1.00,Brighton Road 735,Mon-Sat 07.00-24.00,FALSE,,,,FALSE,,Orange,-6.279284,53.312551,02/01/2012 22:45:00,NULL
498,814,Annesley Place,3,18 P&D / DP,At Number 11,,1.60,"Nottingham St 19, North Strand Rd 357, 358",Mon-Fri 07.00-19.00,FALSE,,,,FALSE,,Green,-6.240628,53.359702,02/01/2012 22:45:00,NULL
499,816,Claremont Road,4,9 P&D / DP,At Oisín Court,,1.00,"Serpentine Rd 782, Farney Park 878, Oaklands Park 767",Mon-Fri 07.00-19.00,FALSE,,,,FALSE,,Orange,-6.221714,53.331742,02/01/2012 22:45:00,NULL
500,817,Seán McDermott Street,1,71 P&D / DP (Total),At Swimming Pool,,2.40,"Sean McDermott St 818, 819",Mon-Sat 07.00-19.00,TRUE,Before 10 / After 16,,,FALSE,,Red,-6.251117,53.35412,02/01/2012 22:45:00,NULL
501,818,Seán McDermott Street,1,71 P&D / DP (Total),Opposite Rutland Street Lower,,2.40,"Sean McDermott St 817, 819",Mon-Sat 07.00-19.00,FALSE,,,,FALSE,,Red,-6.251548,53.353887,02/01/2012 22:45:00,NULL
502,819,Seán McDermott Street,1,71 P&D / DP (Total),Jct Gloucester Place Nth.,,2.40,"Sean McDermott St 817, 818",Mon-Sat 07.00-19.00,FALSE,,,,FALSE,,Red,-6.254736,53.353376,02/01/2012 22:45:00,NULL
503,822,Vernon Grove,3,65 P&D / DP,Opposite No. 1,,1.00,"Frankfort Ave 161, Rathmines Rd Upr 788",Mon-Fri 07.00-19.00,FALSE,,,,FALSE,,Orange,-6.266254,53.315276,02/01/2012 22:45:00,NULL
504,823,Greenfield Park,6,25 P&D,At No. 14,,1.00,Nutley Park 794,Mon-Fri 07.00-19.00,FALSE,,,,TRUE,,Orange,-6.224844,53.312736,02/01/2012 22:45:00,NULL
505,824,Armstrong Street,6,14 P&D / DP,At Number 1,,1.60,None Nearby,Mon-Fri 07.00-19.00,FALSE,,,,FALSE,,Green,-6.275858,53.328904,02/01/2012 22:45:00,NULL
506,826,The Belfry (Inchicore),8,20 P&D / DP,Junction Of Inchicore Road,,1.00,None Nearby,Mon-Sat 07.00-19.00,FALSE,,,,FALSE,,Orange,-6.315365,53.342149,02/01/2012 22:45:00,NULL
507,827,Ard Rí Road,7,58 P&D / DP,Junction Of Arbour Hill / Side of Number 29,,1.60,Viking Place 153,Mon-Fri 07.00-19.00,FALSE,,,,FALSE,,Green,-6.284862,53.34982,02/01/2012 22:45:00,NULL
508,828,Merlyn Park,4,29 P&D / DP,At Merrion Road,,1.60,"Ailesbury Rd 18, 786",Mon-Fri 07.00-19.00,FALSE,,,,FALSE,,Green,-6.216994,53.321557,02/01/2012 22:45:00,NULL
509,829,Cowper Road East,6,53 P&D / DP,Opposite No. 45,,1.00,"Palmerston Rd 736, Merton Rd 846",Mon-Sat 07.00-19.00,FALSE,,,,FALSE,,Orange,-6.256547,53.316245,02/01/2012 22:45:00,NULL
510,830,Grangegorman Upper,7,60 P&D / DP,Opposite Entrance To St. Brendan's Hospital,,2.40,None Nearby,Mon-Sat 07.00-19.00,FALSE,,,,FALSE,,Red,-6.278384,53.354795,02/01/2012 22:45:00,NULL
511,831,Griffith Avenue,9,75 P&D / DP,At The School / Opposite Number 31,,1.00,None Nearby,Mon-Fri 12.00-17.00,TRUE,,,,FALSE,,Orange,-6.232473,53.37029,02/01/2012 22:45:00,NULL
512,832,Clontarf Road,3,29 P&D / DP (Total),Near Hollybrook Road,02/07/2005,1.00,Hollybrook Road 533,Mon-Sat 07.00-16.00,TRUE,16.00-19.00,,,FALSE,,Orange,-6.218216,53.36266,02/01/2012 22:45:00,NULL
513,833,Raheny Road,5,10 P&D / DP,Opposite Number 180,09/08/2005,1.00,None Nearby,Mon-Fri 08.00-18.30,FALSE,,,,FALSE,,Orange,-6.176316,53.383463,02/01/2012 22:45:00,NULL
